,id,owner,title,dateupload,datetaken,ownername,tags,latitude,longitude,accuracy,context,place_id,woeid,geo_is_public,geo_is_contact,geo_is_friend,geo_is_family
0,52745759409,7366969@N02,Star Wars - Disney's Hollywood Studios,1678736983,2022-05-24 10:25:56,myfrozenlife,2022 disneyworld starwars travel florida2022 disney hollywoodstudios aerialphotos usa vacation orlando holiday florida unitedstates,28.357752,-81.556964,16,0,,4146844,1,0,0,0
1,52745758939,7366969@N02,Star Wars - Disney's Hollywood Studios,1678736968,2022-05-24 10:21:25,myfrozenlife,2022 disneyworld starwars travel florida2022 disney hollywoodstudios aerialphotos usa vacation orlando holiday florida unitedstates,28.357752,-81.556964,16,0,,4146844,1,0,0,0
2,52745574735,196608472@N05,"FL 2, Orange County Sheriff's Office 1",1678727393,2023-03-13 11:09:51,Abbott's Patch Collection 2.0,,28.551427,-81.411437,16,0,,7192452,1,0,0,0
3,52742864697,87453389@N03,20230219_064901,1678658005,2023-02-19 06:49:01,Peter Ciro Photography,exif:lens=samsunggalaxys22ultrarearwidecamera geocountry exif:make=samsung camera:model=sms908u geocity geostate exif:isospeed=250 exif:aperture=ƒ18 geo:lon=81410355 geolocation exif:focallength=64mm camera:make=samsung exif:model=sms908u geo:lat=28509237,28.509237,-81.410355,16,0,,7192490,1,0,0,0
4,52743507113,44603553@N03,"The Twilight Zone Tower of Terror 2 - Hollywood Studios WDW - Orlando, FL",1678648434,2023-03-07 14:17:02,RSH3339,the twilight zone tower terror hall hollywood studios walt disney world fl,28.359802,-81.559814,16,0,,4146844,1,0,0,0
5,52742778890,44603553@N03,"Epcot WDW 1 - Orlando, FL",1678629610,2023-03-05 11:04:07,RSH3339,epcot spaceship earth walt disney world fl orlando florida orange,28.374530,-81.549287,16,0,,4146844,1,0,0,0
6,52736518487,89451823@N08,P1010229,1678399345,2021-01-01 11:51:53,FrankHPhillips,,28.371497,-81.547539,16,0,,7170298,1,0,0,0
7,52737043431,89451823@N08,P1010200,1678399353,2021-01-01 09:56:58,FrankHPhillips,,28.369772,-81.555467,16,0,,4146844,1,0,0,0
8,52735163325,105925977@N03,N206PA Orlando 11-11-1991,1678307861,1991-11-11 15:50:40,Plane Buddy,n206pa a300 panam mco orlando,28.452752,-81.329641,14,0,,7192474,1,0,0,0
9,52734570261,77175657@N00,Disney Parade - MGM Studios,1678302288,2001-12-01 00:00:00,graham19492000,,28.359852,-81.555118,16,0,,4149265,1,0,0,0
10,52734568365,77175657@N00,Disney parade in Epcot,1678289649,2001-12-01 00:00:00,graham19492000,,28.359852,-81.555118,16,0,,4149265,1,0,0,0
11,52734498038,25827417@N00,Oscar Meyer Wiener,1678285407,2018-04-29 14:42:07,Hilary_JW,waltdisneyworld orlando disneyshollywoodstudios citizensofhollywood oscarmeyerwiener,28.357728,-81.559485,16,0,,4146844,1,0,0,0
12,52732706502,196608472@N05,"FL 3, Winter Springs Police Department",1678244804,2023-03-07 20:06:34,Abbott's Patch Collection 2.0,,28.704118,-81.304664,16,0,,4178573,1,0,0,0
13,52732761843,77175657@N00,Dolphin feeding time,1678209766,2001-12-01 00:00:00,graham19492000,,28.411332,-81.460597,15,0,,4178397,1,0,0,0
14,52732068591,57968392@N04,Anna Presents...,1678202022,2022-04-20 01:47:29,Laura K Bellamy,frozen frozensingalong disney disneyworld disneyshollywoodstudios,28.356614,-81.559828,16,0,,4146844,1,0,0,0
15,52730288796,29958880@N00,,1678128103,2023-03-06 13:38:36,jonmc,,28.458472,-81.463745,16,0,,4174791,1,0,0,0
16,52728419714,197836684@N06,Disney 2019 - Day 02 - Magic Kingdom,1678050702,2019-03-21 09:52:30,vDelboy,vacation travel,28.372627,-81.510223,16,0,,8260067,1,0,0,0
17,52728417939,197836684@N06,100_4467,1678050723,2005-04-08 15:16:23,vDelboy,seaworld orlando vacation travel,28.410333,-81.461834,16,0,,4178397,1,0,0,0
18,52727660896,38514062@N03,Flatwoods Plum (Prunus umbellata),1678036410,2023-03-03 15:32:53,Mary Keim,taxonomy:binomial=prunusumbellata centralflorida marykeim cwh forlidanativewildflowers,28.494960,-81.367200,14,0,,7169399,1,0,0,0
19,52723076532,89451823@N08,Disney0078(RIV02214),1677864774,2020-07-17 09:39:48,FrankHPhillips,disney202007,28.356236,-81.562125,16,0,,4146844,1,0,0,0
20,52724008210,89451823@N08,Disney0062(RIV02198),1677864776,2020-07-17 09:04:24,FrankHPhillips,disney202007,28.356522,-81.561767,16,0,,4146844,1,0,0,0
21,52724003985,89451823@N08,Disney0831(RIV02825),1677864686,2020-07-21 18:58:49,FrankHPhillips,disney202007,28.414666,-81.574553,16,0,,4146844,1,0,0,0
22,52723595216,89451823@N08,Disney0064(RIV02200),1677864776,2020-07-17 09:11:29,FrankHPhillips,disney202007,28.356172,-81.562745,16,0,,4146844,1,0,0,0
23,52715434846,29958880@N00,Man loaded into ambulance.,1677524001,2023-02-27 13:52:30,jonmc,,28.460997,-81.444039,16,0,,4174791,1,0,0,0
24,52704831482,29958880@N00,,1677111652,2023-02-22 19:20:17,jonmc,,28.446700,-81.457625,16,0,,4174791,1,0,0,0
25,52701530829,25360342@N02,wl99,1676934603,2022-09-05 22:22:56,jenseib,,28.418194,-81.584420,16,0,,7169590,1,0,0,0
26,52697940532,44458225@N00,,1676830746,2022-01-14 15:16:22,keylargo_diver,,28.333411,-81.493900,16,0,,7191225,1,0,0,0
27,52694564418,89455531@N00,BR301,1676634178,1990-05-01 12:36:32,72grande,florida orlando waltdisneyworld magickingdom disney bigthundermountainrailroad frontierland,28.420156,-81.585074,16,0,,7169590,1,0,0,0
28,52693196412,26949422@N05,Disney Springs 2023,1676614958,2023-02-16 19:01:37,djrxxs,,28.370539,-81.519606,16,0,,4149265,1,0,0,0
29,52691370207,26949422@N05,Disney World 2023,1676554278,2023-02-15 19:52:08,djrxxs,,28.420240,-81.582069,12,0,,7169590,1,0,0,0
30,52688544542,196506217@N02,Orlando FL VFD January 2023,1676400492,2023-01-20 09:27:48,Soldiers'_Angels,,28.542566,-81.348131,16,0,,4167147,1,0,0,0
31,52685725995,66784023@N04,2023 WDW Magic Kingdom 09 - P1070088 adj,1676246579,2023-01-15 11:55:49,VKesse,waltdisneyworld magickingdom cinderellascastle,28.419832,-81.581558,15,0,,7169590,1,0,0,0
32,52679987802,59886769@N03,Kilimanjaro Safari,1676044322,2023-02-08 10:02:17,ericalynnea,,28.363988,-81.591859,16,0,,10630384,1,0,0,0
33,52680973483,59886769@N03,Kilimanjaro Safari,1676043303,2023-02-08 09:55:13,ericalynnea,,28.363047,-81.595337,16,0,,10630384,1,0,0,0
34,52679502928,59886769@N03,Kilimanjaro Safari,1675970612,2023-02-08 14:31:32,ericalynnea,,28.363022,-81.595095,16,0,,10630384,1,0,0,0
35,52675896896,59886769@N03,Lego Der'kal Red Stormtrooper,1675825241,2023-02-05 20:28:02,ericalynnea,,28.371450,-81.515770,16,0,,8260067,1,0,0,0
36,52670964358,59886769@N03,Mongolian Filet Mignon,1675613310,2023-02-03 21:12:31,ericalynnea,,28.370880,-81.517906,16,0,,4149265,1,0,0,0
37,52670664613,59886769@N03,Tree,1675603079,2023-02-04 11:16:13,ericalynnea,,28.542477,-81.374573,16,0,,4167147,1,0,0,0
38,52670663578,59886769@N03,Mini golf,1675603040,2023-02-04 13:43:56,ericalynnea,,28.462788,-81.461312,16,0,,4174791,1,0,0,0
39,52667554456,40646519@N00,Christmas Lights On Pristine Circle,1675477840,2022-12-31 19:11:52,Joe Shlabotnik,christmaslights galaxys22ultra 2022 orlando setcruise2022 christmas december2022 florida ocoee unitedstates,28.562288,-81.512534,16,0,,11257764,1,0,0,0
40,52661397336,31764118@N00,"Disney World, Florida",1675199562,2017-09-13 17:25:19,jwtPhoto.com,iphone7plus disneyworld florida vacation fl themepark disney orlando,28.352561,-81.603478,16,0,,10630384,1,0,0,0
41,52657736238,66784023@N04,2023 Disney World 09 - P1060916 adj,1675040274,2023-01-12 15:40:14,VKesse,waltdisneyworld hollywoodstudios,28.358227,-81.559762,16,0,,4146844,1,0,0,0
42,52655163830,29958880@N00,,1674939300,2023-01-28 15:43:43,jonmc,,28.463119,-81.455612,16,0,,4174791,1,0,0,0
43,52654991299,29958880@N00,,1674938920,2023-01-28 14:16:20,jonmc,,28.457144,-81.458245,16,0,,4174791,1,0,0,0
44,52653687417,40646519@N00,Palm Tree In Terminal C,1674919874,2023-01-01 20:29:08,Joe Shlabotnik,orlando airport setcruise2022 galaxys22ultra palmtree florida 2023 january2023 mco unitedstates,28.411647,-81.314406,16,0,,7170008,1,0,0,0
45,52642721436,23245739@N02,2023 Leadership Year - Florida Realtors Mid-winter Meetings,1674419182,2023-01-19 20:38:44,miamism,,28.412369,-81.469659,16,0,,4178397,1,0,0,0
46,52630144592,61993874@N08,N1244 Bombardier BD700 Global Express  ORL,1673879763,2022-10-19 17:07:56,Jetstar731A,n1244 bombardier bd700 global express orl,28.545869,-81.331357,15,0,,4146464,1,0,0,0
47,52629172714,38359273@N00,The Bourne Stuntacular,1673807947,2021-11-10 12:59:56,jrg1975,universalstudios,28.473340,-81.466079,16,0,,4161179,1,0,0,0
48,52626761579,96041756@N00,20230114_100743,1673710301,2023-01-14 10:07:44,"""It's all in the reflexes""",thelionking disneyworld disneyanimalkingdom florida,28.358496,-81.593023,16,0,,10630384,1,0,0,0
49,52625896233,23207003@N05,The Charles Hosmer Morse Museum of American Art - 2023,1673651468,2023-01-13 14:07:16,jrotn,,28.600747,-81.351609,16,0,,7171028,1,0,0,0
50,52624474777,40646519@N00,Bacon For Breakfast On New Year's Day,1673634236,2023-01-01 11:56:59,Joe Shlabotnik,cooking galaxys22ultra bacon food 2023 setcruise2022 january2023 florida orlando unitedstates,28.555897,-81.508350,16,0,,11257764,1,0,0,0
51,52624969961,40646519@N00,Christmas Lights On Pristine Circle,1673633583,2022-12-31 19:12:39,Joe Shlabotnik,christmaslights galaxys22ultra 2022 orlando setcruise2022 christmas december2022 florida ocoee unitedstates,28.562252,-81.512689,16,0,,11257764,1,0,0,0
52,52623150129,61993874@N08,N111GU Cessna 680 Citation Sovereign  ORL,1673537066,2022-10-19 10:27:19,Jetstar731A,,28.545869,-81.331357,15,0,,4146464,1,0,0,0
53,52619352497,38359273@N00,Sister Hazel,1673390225,2021-11-06 14:42:07,jrg1975,ucf sisterhazel,28.609089,-81.194286,14,0,,7192501,1,0,0,0
54,52619053164,61993874@N08,N711PV Dassault Falcon 7X  ORL,1673347420,2022-10-18 09:02:53,Jetstar731A,n711pv dassault falcon 7x orl,28.545869,-81.331357,15,0,,4146464,1,0,0,0
55,52613231566,62007874@N00,"Dragon on Porch, Oakland",1673128957,2022-03-26 11:33:27,StevenM_61,sculpture house oakland dragon florida porch,28.554570,-81.613710,16,0,,4175374,1,0,0,0
56,52610185252,38359273@N00,Madison Beer,1673018949,2021-11-02 22:29:10,jrg1975,houseofblues madisonbeer,28.371124,-81.523532,14,0,,4149265,1,0,0,0
57,52611179993,38359273@N00,Madison Beer,1673018952,2021-11-02 22:37:50,jrg1975,houseofblues madisonbeer,28.371124,-81.523532,14,0,,4149265,1,0,0,0
58,52609221041,30707075@N08,Sunrise over airside 2,1672952446,2017-02-18 07:29:35,MIDEXJET (Thank you for over 3 million views!),orlando orlandoflorida oia oiaa orlandointernationalairport orlandomccoy kmco mco orlandointernationalairportauthority flymco florida unitedstatesofamerica,28.434902,-81.302003,15,0,,7170008,1,0,0,0
59,52606480766,61993874@N08,N275MT Canadair CL601 Challenger  ORL,1672839181,2022-10-16 11:29:22,Jetstar731A,n275mt canadair cl601 challenger orl,28.545869,-81.331357,15,0,,4146464,1,0,0,0
60,52600086455,61993874@N08,N1TS Boeing 737-7JY/W (BBJ)  ORL,1672571815,2022-10-14 15:48:48,Jetstar731A,n1ts boeing 7377jyw bbj orl,28.545869,-81.331357,15,0,,4146464,1,0,0,0
61,52593996637,51035555243@N01,Kitty Kat Club,1672353311,2019-07-14 09:29:32,Thomas Hawk,america florida kittykatclub orlando usa unitedstates unitedstatesofamerica universal universalorlandoresort universalstudios universalstudiosflorida universalstudiosorlando neon neonsign fav10 fav25,28.476752,-81.468770,16,0,,4161179,1,0,0,0
62,52592138398,49228391@N00,Aug 2022 Wedding Photos,1672243763,2022-08-05 09:58:55,TPN&A,,28.503505,-81.327837,16,0,,4151745,1,0,0,0
63,52590371595,21652490@N06,Daisy Duck,1672174809,2022-10-01 00:00:00,meeko_,daisy duck daisyduck characters disneycharacters cretaceoustrail donaldsdinobash dinolandusa disneys animal kingdom disneysanimalkingdom themepark walt disney world waltdisneyworld florida,28.357624,-81.590588,15,0,,10630384,1,0,0,0
64,52587861814,196357564@N08,TSO Concert,1672083095,2022-12-17 15:48:47,ILuv2RV,,28.539294,-81.383789,16,0,,4167147,1,0,0,0
65,52574107995,19920753@N06,EPCOT,1671477052,2019-05-07 13:00:18,TagDragon,wdw disney,28.375252,-81.549417,16,0,,4146844,1,0,0,0
66,52573195027,19920753@N06,EPCOT,1671477051,2019-05-07 13:00:03,TagDragon,wdw disney,28.375252,-81.549417,16,0,,4146844,1,0,0,0
67,52563920580,37580254@N03,Disney Art of Animation,1671041460,2022-11-28 15:20:14,DAN GAKEN IMAGES,orlando florida disney resort hotel wdw fl motel,28.353479,-81.546642,16,0,,4149265,1,0,0,0
68,52551964174,38359273@N00,Halloween Horror Nights 2021,1670548032,2021-10-14 21:47:32,jrg1975,universalstudios halloweenhorrornights,28.473340,-81.466079,16,0,,4161179,1,0,0,0
69,52549444179,132290357@N04,221205_Osceola_County_Resiliency_Tour_S-59-05348,1670439377,2022-12-05 17:42:58,SFWMD,libbypigman osceolacounty s59 resiliency saintcloud florida unitedstates,28.264058,-81.312834,16,0,,7192998,1,0,0,0
70,52549619390,132290357@N04,221205_Osceola_County_Resiliency_Tour_S-59-05382,1670439379,2022-12-05 17:44:55,SFWMD,osceolacounty s59 veronicamiller resiliency saintcloud florida unitedstates,28.264091,-81.312831,16,0,,7192998,1,0,0,0
71,52548821424,51035555243@N01,Bread Box,1670418288,2019-07-14 16:25:40,Thomas Hawk,america breadbox citywalk florida orlando usa unitedstates unitedstatesofamerica universal universalcitywalk universalcitywalkorlando universalorlandoresort fav10,28.473769,-81.465856,16,0,,4161179,1,0,0,0
72,52542535807,67872859@N00,With Mickey & Minnie Mouse in 2006,1670197002,2022-12-04 23:35:31,IainCameron,,28.358105,-81.561082,16,0,,4146844,1,0,0,0
73,52541246219,57268629@N00,,1670125601,2022-11-26 13:03:41,vandinglewop,,28.419177,-81.584114,16,0,,7169590,1,0,0,0
74,52540368132,57268629@N00,,1670120711,2022-11-18 12:35:58,vandinglewop,,28.374030,-81.553300,16,0,,4146844,1,0,0,0
75,52538905082,57268629@N00,,1670066818,2022-11-17 13:16:36,vandinglewop,,28.368133,-81.551353,16,0,,4146844,1,0,0,0
76,52537263524,68185014@N00,IMG_6561,1669957958,2022-11-27 14:16:31,emerycharles,,28.537802,-81.378075,16,0,,4167147,1,0,0,0
77,52533834592,21652490@N06,Mulan,1669842007,2022-10-01 00:00:00,meeko_,mulan characters disneycharacters china chinapavilion worldshowcase epcot themepark walt disney world waltdisneyworld florida,28.373050,-81.549453,15,0,,7170298,1,0,0,0
78,52523650079,9036889@N06,,1669419095,2022-11-18 09:33:14,milst1,,28.426800,-81.463487,16,0,,4178397,1,0,0,0
79,52522906287,9036889@N06,,1669419055,2022-11-14 14:34:26,milst1,,28.426813,-81.460412,16,0,,4178397,1,0,0,0
80,52523275819,9036889@N06,,1669403515,2022-11-18 19:03:34,milst1,,28.419291,-81.577003,16,0,,4146844,1,0,0,0
81,52520486837,145015622@N03,o’hana polynesian village,1669310305,2022-11-24 11:57:26,bluemananthony1,o,28.405858,-81.585237,16,0,,7169590,1,0,0,0
82,52520419204,22007612@N05,Eric Bledsoe,1669278517,2022-11-19 12:26:12,Gage Skidmore,eric bledsoe hazlitt summit 2022 young americans for liberty foundation doubletree hilton orlando airport florida,28.463903,-81.311166,16,0,,7192472,1,0,0,0
83,52519666957,22007612@N05,Erik Mortensen & Bryan Slaton,1669278529,2022-11-19 13:05:06,Gage Skidmore,erik mortensen minnesota state representative bryan slaton texas hazlitt summit 2022 young americans for liberty foundation doubletree hilton orlando airport florida,28.463903,-81.311166,16,0,,7192472,1,0,0,0
84,52520615970,22007612@N05,Brandon Borke,1669278541,2022-11-19 15:12:24,Gage Skidmore,brandon borke hazlitt summit 2022 young americans for liberty foundation doubletree hilton orlando airport florida,28.463903,-81.311166,16,0,,7192472,1,0,0,0
85,52520354179,22007612@N05,Andy Matthews,1669270322,2022-11-17 16:08:50,Gage Skidmore,andy matthews nevada state controller hazlitt summit 2022 young americans for liberty foundation doubletree hilton orlando airport florida,28.463903,-81.311166,16,0,,7192472,1,0,0,0
86,52520341714,22007612@N05,Jacyn Gallagher,1669270379,2022-11-18 07:11:34,Gage Skidmore,jacyn gallagher idaho state representative hazlitt summit 2022 young americans for liberty foundation doubletree hilton orlando airport florida,28.463903,-81.311166,16,0,,7192472,1,0,0,0
87,52519689456,22007612@N05,Elaine Price,1669250346,2022-11-17 14:51:03,Gage Skidmore,elaine price idaho state representative hazlitt summit 2022 young americans for liberty foundation doubletree hilton orlando airport florida,28.463903,-81.311166,16,0,,7192472,1,0,0,0
88,52519211887,22007612@N05,Christopher Kurka,1669250364,2022-11-17 15:09:43,Gage Skidmore,christopher chris kurka alaska state representative hazlitt summit 2022 young americans for liberty foundation doubletree hilton orlando airport florida,28.463903,-81.311166,16,0,,7192472,1,0,0,0
89,52519454041,22007612@N05,Scott Herndon,1669245644,2022-11-18 08:21:51,Gage Skidmore,scott herndon idaho state senator hazlitt summit 2022 young americans for liberty foundation doubletree hilton orlando airport florida,28.463903,-81.311166,16,0,,7192472,1,0,0,0
90,52519918035,22007612@N05,Janae Shamp,1669245702,2022-11-19 08:43:44,Gage Skidmore,janae shamp arizona state senator hazlitt summit 2022 young americans for liberty foundation doubletree hilton orlando airport florida,28.463903,-81.311166,16,0,,7192472,1,0,0,0
91,52519439631,22007612@N05,Joy Goeben,1669245708,2022-11-19 08:46:58,Gage Skidmore,joy goeben state representative assemblywoman wisconsin hazlitt summit 2022 young americans for liberty foundation doubletree hilton orlando airport florida,28.463903,-81.311166,16,0,,7192472,1,0,0,0
92,52519437321,22007612@N05,Cole Christensen,1669245639,2022-11-19 15:45:52,Gage Skidmore,cole christensen north dakota state representative hazlitt summit 2022 young americans for liberty foundation doubletree hilton orlando airport florida,28.463903,-81.311166,16,0,,7192472,1,0,0,0
93,52515856828,9036889@N06,Andrew Wexler (IAAPA CEO) Talk at IAAPA,1669067405,2022-11-14 12:54:21,milst1,,28.426716,-81.461862,16,0,,4178397,1,0,0,0
94,52515243191,9036889@N06,,1669065240,2022-11-19 15:32:57,milst1,,28.373080,-81.551706,16,0,,4146844,1,0,0,0
95,52515785528,9036889@N06,,1669065140,2022-11-19 12:43:51,milst1,,28.370838,-81.551498,16,0,,4146844,1,0,0,0
96,52515766808,9036889@N06,,1669064524,2022-11-19 13:32:23,milst1,,28.368247,-81.547684,16,0,,4149265,1,0,0,0
97,52515103206,9036889@N06,Inflatables at IAAPA 2022,1669061056,2022-11-16 10:58:51,milst1,,28.429500,-81.459734,16,0,,4178397,1,0,0,0
98,52515576360,9036889@N06,,1669060930,2022-11-19 18:08:22,milst1,,28.370500,-81.546981,16,0,,7170298,1,0,0,0
99,52514437676,129426516@N03,PXL_20220912_213510768,1669042521,2022-09-12 17:35:10,im_t_wal,brokk odin tyler disney2022,28.418305,-81.581137,16,0,,7169590,1,0,0,0
100,52514853968,96333735@N06,_XT42351,1669038598,2022-11-12 10:27:15,James Ito,florida lakeeolapark places usa vetreansdayparade orlando unitedstates,28.542116,-81.375884,16,0,,4167147,1,0,0,0
101,52514165681,9036889@N06,MCO SeaWorld Billboard,1669034171,2022-11-14 10:19:57,milst1,,28.430830,-81.306764,16,0,,7170008,1,0,0,0
102,52513096970,9036889@N06,Andrew Wexler (IAAPA CEO) Talk at IAAPA,1668973219,2022-11-14 12:37:21,milst1,,28.426738,-81.461892,16,0,,4178397,1,0,0,0
103,52513107703,9036889@N06,IAAPA Sponsors 2022,1668971573,2022-11-14 13:37:54,milst1,,28.426730,-81.460992,16,0,,4178397,1,0,0,0
104,52512087707,9036889@N06,,1668971543,2022-11-19 15:18:09,milst1,,28.371844,-81.549584,16,0,,7170298,1,0,0,0
105,52513074998,9036889@N06,,1668970512,2022-11-18 14:06:52,milst1,,28.430897,-81.462587,16,0,,4178397,1,0,0,0
106,52510260002,38514062@N03,American Robin (Turdus migratorius),1668898518,2022-11-15 14:22:45,Mary Keim,centralflorida cwh marykeim taxonomy:binomial=turdusmigratorius,28.494970,-81.367750,13,0,,7169399,1,0,0,0
107,52500999122,62861611@N08,"N69742, Boeing 727 224, Planet Airways (22251), Orlando 19th October 2022",1668516836,2022-10-19 17:49:44,Swindon Weasel,orlando,28.445702,-81.332017,16,0,,7192474,1,0,0,0
108,52501764559,62861611@N08,"PT-FTB, Cessna Citation V (560-0060), Orlando 19th October 2022",1668516835,2022-10-19 07:52:18,Swindon Weasel,orlando,28.445702,-81.332017,16,0,,7192474,1,0,0,0
109,52501693928,62861611@N08,"N684GA, Gulfstream Aerospace GVII-G600 (73084), Orlando Executive 18th October 2022",1668499937,2022-10-18 16:47:59,Swindon Weasel,orlandoexecutive nbaa2022 nbaaorlando,28.548922,-81.335525,16,0,,4146464,1,0,0,0
110,52501692203,62861611@N08,"N318XL, Textron Aviation Citation XLS Gen2 (560-6318), Orlando Executive 18th October 2022",1668499957,2022-10-18 16:51:55,Swindon Weasel,orlandoexecutive nbaa2022 nbaaorlando,28.548922,-81.335525,16,0,,4146464,1,0,0,0
111,52487671218,9091185@N08,IMG_5536,1667948038,2022-11-08 11:44:46,Kevin Tichenor,,28.493741,-81.433787,16,0,,7192490,1,0,0,0
112,52482019834,39733459@N00,Trashy Mousketeer,1667763503,2022-11-02 17:03:15,HarveNYC,,28.359797,-81.558259,16,0,,4146844,1,0,0,0
113,52482205860,39733459@N00,Star Wars,1667763392,2022-11-02 13:11:34,HarveNYC,,28.353858,-81.561784,16,0,,4146844,1,0,0,0
114,52482286573,39733459@N00,Ray & Mags,1667763343,2022-11-03 21:43:10,HarveNYC,,28.420038,-81.579881,16,0,,7169590,1,0,0,0
115,52477977529,9911655@N08,Universal Studios Florida,1667613670,2022-10-18 07:58:50,wyliepoon,universal studios florida orlando resort theme park citywalk,28.478756,-81.469000,16,0,,4161179,1,0,0,0
116,52475591145,90313108@N06,PXL_20221027_184754713.MP,1667508195,2022-10-27 14:47:54,guggi family,,28.419055,-81.581317,16,0,,7169590,1,0,0,0
117,52472253656,27874898@N00,Walt Disney World,1667400494,2022-10-24 13:00:05,MattCC716,waltdisneyworld orlando themepark disney disneyshollywoodstudios canon eos rp canonrf70200mmf4lisusm rf 70200mm f4 l is usm twilightzonetowerofterror,28.359619,-81.560714,16,0,,4146844,1,0,0,0
118,52471679687,27874898@N00,Walt Disney World,1667398037,2022-10-20 09:34:59,MattCC716,waltdisneyworld orlando themepark disney disneys hollywood studios canon eos rp canonrf70200mmf4lisusm rf 70200mm f4 l is usm starwars starwarsgalaxysedge savisworkshop lightsaber,28.358397,-81.558814,16,0,,4146844,1,0,0,0
119,52503760977,134270033@N06,NOT A MALLARD,1667286029,2022-03-07 05:34:22,observe:photo doc:learn = fun :),,28.329033,-81.585659,16,0,,10630384,1,0,0,0
120,52469175533,38514062@N03,False Fennel (Eupatorium leptophyllum),1667257966,2022-10-29 13:02:58,Mary Keim,taxonomy:genus=eupatorium centralflorida marykeim splitoakforestwea bioblitz taxonomy:binomial=eupatoriumleptophyllum,28.357227,-81.208555,15,0,,7192999,1,0,0,0
121,52466166435,38359273@N00,The Struts,1667165894,2021-09-03 20:42:40,jrg1975,thebeacham thestruts,28.543064,-81.379043,15,0,,4167147,1,0,0,0
122,52464070238,84806883@N00,IMG_20221029_164717,1667091987,2022-10-29 16:47:20,.Martin.,,28.485647,-81.431608,15,0,,4166583,1,0,0,0
123,52463431481,38359273@N00,Magic Kingdom,1667088317,2021-09-02 19:51:18,jrg1975,magickingdom,28.418919,-81.582627,14,0,,7169590,1,0,0,0
124,52462506034,66517913@N05,Halloween Fireworks in Magic Kingdom,1667047305,2022-09-14 03:24:22,Matt C68,magickingdom mainstreet disneyworld fireworks halloween orlando florida ibis,28.417428,-81.581254,16,0,,7169590,1,0,0,0
125,52459714411,84806883@N00,IMG_20221027_222731,1666939399,2022-10-27 22:27:31,.Martin.,,28.419126,-81.581103,16,0,,7169590,1,0,0,0
126,52459979094,84806883@N00,IMG_20221027_222010,1666939323,2022-10-27 22:20:10,.Martin.,,28.419126,-81.581103,16,0,,7169590,1,0,0,0
127,52459713376,84806883@N00,IMG_20221027_222006,1666939322,2022-10-27 22:20:07,.Martin.,,28.419126,-81.581103,16,0,,7169590,1,0,0,0
128,52460156280,84806883@N00,IMG_20221027_213445,1666939207,2022-10-27 21:34:45,.Martin.,,28.418418,-81.581146,16,0,,7169590,1,0,0,0
129,52460236933,84806883@N00,IMG_20221027_195837,1666939122,2022-10-27 19:58:38,.Martin.,,28.419060,-81.581286,16,0,,7169590,1,0,0,0
130,52459708991,84806883@N00,IMG_20221027_194634,1666939050,2022-10-27 19:46:34,.Martin.,,28.419060,-81.581286,16,0,,7169590,1,0,0,0
131,52459184137,84806883@N00,IMG_20221027_192601_638,1666938984,2022-10-28 07:36:24,.Martin.,,28.419060,-81.581286,16,0,,7169590,1,0,0,0
132,52459706701,84806883@N00,IMG_20221027_182633,1666938888,2022-10-27 18:26:33,.Martin.,,28.420881,-81.582026,16,0,,7169590,1,0,0,0
133,52460149460,84806883@N00,IMG_20221027_174847,1666938777,2022-10-27 17:48:47,.Martin.,,28.421362,-81.580106,16,0,,7169590,1,0,0,0
134,52459956564,84806883@N00,IMG_20221027_111203,1666937966,2022-10-27 11:12:04,.Martin.,,28.371370,-81.515872,16,0,,8260067,1,0,0,0
135,52454558366,84806883@N00,IMG_20221025_100258,1666744838,2022-10-25 10:03:00,.Martin.,,28.478376,-81.466680,16,0,,4161179,1,0,0,0
136,52454556946,84806883@N00,IMG_20221025_093907,1666744793,2022-10-25 09:39:08,.Martin.,,28.478056,-81.466444,16,0,,4161179,1,0,0,0
137,52455078433,84806883@N00,IMG_20221025_092619,1666744726,2022-10-25 09:26:21,.Martin.,,28.480602,-81.467657,16,0,,4161179,1,0,0,0
138,52454030617,84806883@N00,IMG_20221025_091706,1666744720,2022-10-25 09:17:06,.Martin.,,28.480602,-81.467657,16,0,,4161179,1,0,0,0
139,52455003505,84806883@N00,IMG_20221025_084220,1666744625,2022-10-25 08:42:21,.Martin.,,28.479838,-81.468257,16,0,,4161179,1,0,0,0
140,52455075328,84806883@N00,IMG_20221025_083943,1666744607,2022-10-25 08:39:43,.Martin.,,28.479254,-81.469330,16,0,,4161179,1,0,0,0
141,52454021657,84806883@N00,IMG_20221025_073627,1666744380,2022-10-25 07:36:29,.Martin.,,28.475132,-81.466863,16,0,,4161179,1,0,0,0
142,52452750040,84806883@N00,IMG_20221024_201611,1666666280,2022-10-24 20:16:14,.Martin.,,28.471454,-81.469599,16,0,,4161179,1,0,0,0
143,52452799548,84806883@N00,IMG_20221024_114506,1666665478,2022-10-24 11:45:09,.Martin.,universal volcano bay water theme park orlando florida holiday vacation waterpark,28.461475,-81.473482,16,0,,4153367,1,0,0,0
144,52428687262,38359273@N00,Hollywood Studios,1665844706,2021-08-20 10:48:07,jrg1975,hollywoodstudios,28.357681,-81.561255,15,0,,4146844,1,0,0,0
145,52429470224,38359273@N00,Star Wars:  Rise Of The Resitance,1665844721,2021-08-20 13:30:49,jrg1975,hollywoodstudios,28.357681,-81.561255,15,0,,4146844,1,0,0,0
146,52420563436,38359273@N00,MegaCon 2021,1665507662,2021-08-13 15:56:31,jrg1975,orangecountyconventioncenter megacon cosplay,28.424939,-81.469674,15,0,,4178397,1,0,0,0
147,52421065253,38359273@N00,MegaCon 2021,1665507679,2021-08-13 17:05:08,jrg1975,orangecountyconventioncenter megacon cosplay,28.424939,-81.469674,15,0,,4178397,1,0,0,0
148,52394977154,61270229@N05,22-0008-165 AGD 2022,1664545745,2022-07-27 11:21:36,NavyMedicine,dentalcorps,28.424963,-81.435517,16,0,,4178397,1,0,0,0
149,52388091429,62634671@N08,SeaWorld Adventure Parks - USA - Over The Years.,1664272920,1980-08-01 12:00:04,John Mac 2011 UK,1980 alexandria florida johnmacstravelphotography johnmacsusa killerwhale overtheyears seaworld seaworldadventureparksjohnmacstravelphotography shamu usa usaovertheyears usa1980 usa1980tour usathemeparksofamericaovertheyears,28.411786,-81.460014,16,0,,4178397,1,0,0,0
150,52388091354,62634671@N08,SeaWorld Adventure Parks - USA - Over The Years.,1664272921,1980-08-01 12:00:04,John Mac 2011 UK,1980 alexandria florida johnmacstravelphotography johnmacsusa killerwhale overtheyears seaworld seaworldadventureparksjohnmacstravelphotography shamu usa usaovertheyears usa1980 usa1980tour usathemeparksofamericaovertheyears,28.411786,-81.460014,16,0,,4178397,1,0,0,0
151,52386511716,25360342@N02,party77,1664223165,2022-08-12 22:36:36,jenseib,,28.418444,-81.581056,16,0,,7169590,1,0,0,0
152,52386819374,25360342@N02,party76,1664223164,2022-08-12 22:36:20,jenseib,,28.418444,-81.581056,16,0,,7169590,1,0,0,0
153,52384164660,73114641@N00,20220925_121011,1664134107,2022-09-25 12:10:12,RobandSheila,,28.543362,-81.374423,16,0,,4167147,1,0,0,0
154,52384161320,73114641@N00,20220925_125447,1664134031,2022-09-25 12:54:48,RobandSheila,,28.543362,-81.374423,16,0,,4167147,1,0,0,0
155,52381162813,62634671@N08,Disney Theme Parks - USA - Over The Years.,1664040377,1980-08-01 12:00:03,John Mac 2011 UK,1980 alexandria disneythemeparksjohnmacstravelphotography florida johnmacstravelphotography johnmacsusa overtheyears themagickingdom usa usaovertheyears usa1980 usa1980tour usathemeparksofamericaovertheyears waltdisneyworld,28.378700,-81.556398,16,0,,4146844,1,0,0,0
156,52381234734,62634671@N08,Disney Theme Parks - USA - Over The Years.,1664040446,1986-08-01 13:00:00,John Mac 2011 UK,1986 disneythemeparksjohnmacstravelphotography florida johnmacstravelphotography johnmacsusa overtheyears theepcotcentre usa usaovertheyears usa1986 usa1986tour usathemeparksofamericaovertheyears waltdisneyworld,28.375669,-81.549409,16,0,,4146844,1,0,0,0
157,52377640586,66988833@N02,Bucky's Pattern,1663897537,2022-09-02 18:36:06,IRL_f,disney disneyworld epcot spaceship earth patter buckminster fuller buckyball geodesic dome,28.375486,-81.549432,16,0,,4146844,1,0,0,0
158,52372347778,187103922@N04,Brightline at Orlando International Intermodal Terminal,1663696540,2022-09-20 13:53:34,elisfkc2,,28.413541,-81.309434,16,0,,7170008,1,0,0,0
159,52369216006,22324943@N00,IMG_20220915_123033381_HDR,1663601044,2022-09-15 12:30:37,reynolds.james.e,,28.354708,-81.561120,16,0,,4146844,1,0,0,0
160,52369593315,22324943@N00,IMG_20220914_202944109,1663599963,2022-09-14 20:29:46,reynolds.james.e,,28.420119,-81.582909,16,0,,7169590,1,0,0,0
161,52369482529,22324943@N00,IMG_20220912_173407437_HDR,1663599874,2022-09-12 17:34:11,reynolds.james.e,,28.371338,-81.515589,16,0,,8260067,1,0,0,0
162,52345716206,187458046@N07,Honeymoon_2011_123,1662746606,2011-09-12 16:19:40,detti.gianluca,us usa viaggiodinozze lunadimiele sognoamericano honeymoon florida disney waltdisney disneyland topolino mickeymouse fantasia,28.382490,-81.567134,12,0,,4146844,1,0,0,0
163,52344757992,187458046@N07,Honeymoon_2011_154,1662746626,2011-09-15 14:32:31,detti.gianluca,us usa viaggiodinozze lunadimiele sognoamericano honeymoon florida universalstudios harrypotter hogwartsexpress,28.473406,-81.468086,14,0,,4161179,1,0,0,0
164,52313801990,57835821@N00,Downtown Disney,1661563532,2022-08-21 13:22:04,heytampa,downtowndisney disneyworld disneysprings fountain,28.370786,-81.515567,16,0,,8260067,1,0,0,0
165,52297439060,12508217@N08,Wide Angle,1660941683,2022-08-19 15:22:38,Sam Howzit,waltdisneyworld epcot epcotcenter florida disney disneyparks eattothebeat concert epcotinternationalfoodandwinefestival christophercross yachtrock,28.368264,-81.549421,16,0,,4149265,1,0,0,0
166,52290575372,57968392@N04,Snowman in a Scarf,1660726815,2018-12-09 15:27:52,Laura K Bellamy,harrypotterworld wizardingworldofharrypotter universalstudiosorlando islandsofadventure travel hogsmeade,28.472275,-81.473300,16,0,,4161179,1,0,0,0
167,52288653362,12508217@N08,Backup Vocals,1660655378,2022-08-15 19:03:32,Sam Howzit,epcotinternationalfoodandwinefestival disney disneyparks epcot epcotcenter waltdisneyworld americangardenstheatre americanadventure eattothebeat concert christophercross florida yachtrock,28.368264,-81.549421,16,0,,4149265,1,0,0,0
168,52290115800,12508217@N08,Christopher Cross,1660655380,2022-08-15 19:06:07,Sam Howzit,epcotinternationalfoodandwinefestival disney disneyparks epcot epcotcenter waltdisneyworld americangardenstheatre americanadventure eattothebeat concert christophercross florida yachtrock,28.368264,-81.549421,16,0,,4149265,1,0,0,0
169,52289894049,12508217@N08,Christopher Cross,1660655382,2022-08-15 19:14:41,Sam Howzit,epcotinternationalfoodandwinefestival disney disneyparks epcot epcotcenter waltdisneyworld americangardenstheatre americanadventure eattothebeat concert christophercross florida yachtrock,28.368264,-81.549421,16,0,,4149265,1,0,0,0
170,52282496137,12508217@N08,Great Movie Ride Marquee,1660443462,2017-08-11 01:03:52,Sam Howzit,waltdisneyworld disneyshollywoodstudios greatmovieride disney disneyparks,28.357067,-81.560525,16,0,,4146844,1,0,0,0
171,52279769903,22007612@N05,Heather Fazio with attendee,1660268938,2022-08-06 16:22:32,Gage Skidmore,heather fazio revolution 2022 young americans liberty gaylord palms resort convention center kissimmee florida,28.342410,-81.526472,15,0,,4150394,1,0,0,0
172,52278574822,22007612@N05,Tim Baxter,1660267395,2022-08-06 13:59:05,Gage Skidmore,tim baxter new hampshire state representative revolution 2022 young americans liberty gaylord palms resort convention center kissimmee florida,28.342410,-81.526472,15,0,,4150394,1,0,0,0
173,52278573222,22007612@N05,Curt Nisly,1660267406,2022-08-06 14:14:27,Gage Skidmore,curt nisly indiana state representative revolution 2022 young americans liberty gaylord palms resort convention center kissimmee florida,28.342410,-81.526472,15,0,,4150394,1,0,0,0
174,52278491612,22007612@N05,Justin Amash,1660255938,2022-08-06 12:59:20,Gage Skidmore,justin amash former united states congress congressman revolution 2022 young americans liberty gaylord palms resort convention center kissimmee florida,28.342410,-81.526472,15,0,,4150394,1,0,0,0
175,52279335291,22007612@N05,Mathew Hoffman,1660252597,2022-08-06 10:42:39,Gage Skidmore,mathew hoffman adf alliance defending freedom revolution 2022 young americans liberty gaylord palms resort convention center kissimmee florida,28.342410,-81.526472,15,0,,4150394,1,0,0,0
176,52278431515,22007612@N05,Tulsi Gabbard,1660196424,2022-08-05 18:32:43,Gage Skidmore,tulsi gabbard united states congress congresswoman hawaii revolution 2022 young americans liberty gaylord palms resort convention center kissimmee florida,28.342410,-81.526472,15,0,,4150394,1,0,0,0
177,52276830017,22007612@N05,Ted Patterson,1660189436,2022-08-05 16:51:29,Gage Skidmore,ted patterson revolution 2022 young americans liberty gaylord palms resort convention center kissimmee florida,28.342410,-81.526472,15,0,,4150394,1,0,0,0
178,52277802916,22007612@N05,Zuby,1660189448,2022-08-05 17:32:13,Gage Skidmore,zuby revolution 2022 young americans liberty gaylord palms resort convention center kissimmee florida,28.342410,-81.526472,15,0,,4150394,1,0,0,0
179,52277423891,22007612@N05,Michael F. Cannon,1660171292,2022-08-04 17:08:28,Gage Skidmore,michael cannon revolution 2022 young americans liberty gaylord palms resort convention center kissimmee florida,28.342410,-81.526472,15,0,,4150394,1,0,0,0
180,52277421086,22007612@N05,Dave Smith,1660171308,2022-08-04 17:27:17,Gage Skidmore,dave smith comedian revolution 2022 young americans liberty gaylord palms resort convention center kissimmee florida,28.342410,-81.526472,15,0,,4150394,1,0,0,0
181,52277419956,22007612@N05,Dave Smith,1660171315,2022-08-04 17:30:04,Gage Skidmore,dave smith comedian revolution 2022 young americans liberty gaylord palms resort convention center kissimmee florida,28.342410,-81.526472,15,0,,4150394,1,0,0,0
182,52276443607,22007612@N05,Dave Smith,1660171326,2022-08-04 17:36:57,Gage Skidmore,dave smith comedian revolution 2022 young americans liberty gaylord palms resort convention center kissimmee florida,28.342410,-81.526472,15,0,,4150394,1,0,0,0
183,52277576314,22007612@N05,Spike Cohen,1660167086,2022-08-04 16:17:44,Gage Skidmore,spike cohen vice presidential nominee libertarian party revolution 2022 young americans liberty gaylord palms resort convention center kissimmee florida,28.342410,-81.526472,15,0,,4150394,1,0,0,0
184,52267534524,25827417@N00,Bacon & Eggs @ Steakhouse 71,1659802444,2022-05-01 20:20:04,Hilary_JW,waltdisneyworld orlando contemporaryresort restaurants steakhouse71,28.415576,-81.574737,16,0,,4146844,1,0,0,0
185,52229580313,25827417@N00,Adventureland,1658341468,2022-04-28 12:45:16,Hilary_JW,waltdisneyworld orlando magickingdom adventureland,28.418443,-81.583261,16,0,,7169590,1,0,0,0
186,52227356722,42786185@N06,Orlando,1658288856,2022-04-16 07:30:36,PelicanPete,landscapephotography sunsetphotography fla thefloridaphotographer disneysprings orlando usa unitedstates centralflorida holiday minivacation windows treetops horizon west bright trees norain coldandwindy skyscape eastersunday 41622 orlandoflorida dark planethollywood lights restaurant lake roof reflection blue fun turquoiseballoon ropes puffywhiteclouds scape amphicar paddlefish flag balloon umbrella car captain hot sun cloudscape puffyclouds sunset spring2022 betweenthebuildings dusk dusky golden,28.375202,-81.508405,16,0,,8260067,1,0,0,0
187,52222284811,25827417@N00,Disney Festival of Fantasy Parade,1658076749,2022-04-28 12:19:21,Hilary_JW,waltdisneyworld orlando magickingdom festivaloffantasyparade parades,28.418856,-81.581228,16,0,,7169590,1,0,0,0
188,52220060017,96639807@N00,PXL_20220716_190538179.MP,1658021744,2022-07-16 15:05:38,planetdavis23,,28.601705,-81.272556,16,0,,4156959,1,0,0,0
189,52216423143,25827417@N00,Cinderella Castle,1657826539,2022-04-28 10:28:43,Hilary_JW,waltdisneyworld orlando magickingdom cinderellacastle 50thanniversary,28.418856,-81.581228,16,0,,7169590,1,0,0,0
190,52214675412,10485077@N06,Tomorrowland Antenna,1657802774,2022-07-14 00:08:51,edenpictures,disneyworld waltdisneyworld orlando florida vacation magickingdom themepark tomorrowland eden mateo,28.418455,-81.579350,16,0,,7169590,1,0,0,0
191,52214653897,10485077@N06,Palm Tree With Fireworks,1657801938,2022-07-12 21:15:07,edenpictures,disneyworld waltdisneyworld orlando florida vacation epcot themepark epcotcenter fireworks worldshowcaselagoon worldshowcase,28.367619,-81.550470,16,0,,4149265,1,0,0,0
192,52214080077,42786185@N06,EPCOT,1657771820,2022-04-16 22:35:59,PelicanPete,epcot orlando 2022 florida centralflorida unitedstates usa flower garden fla festival spring2022 colorful outdoor fl flowerbed landscape flowerscape colorscape plant field lake fun bank flowersonparade grass monorail land flowerandgardenfestival disneyworld themepark flowermosaic patterns flowercarpet mosaic springtimecolor festive imagination pyramids jumpingfountains color themagicofpossibility spaceshipearth sphere mickey welcome 50,28.373041,-81.549764,16,0,,4146844,1,0,0,0
193,52213152239,10485077@N06,Epcot Skyrockets,1657683702,2022-07-12 21:20:31,edenpictures,disneyworld waltdisneyworld orlando florida vacation epcot themepark epcotcenter fireworks worldshowcaselagoon worldshowcase,28.368583,-81.552089,16,0,,4146844,1,0,0,0
194,52212880618,10485077@N06,Africa Section,1657682735,2022-07-12 08:19:04,edenpictures,disneyworld waltdisneyworld orlando florida vacation animalkingdom themepark,28.358488,-81.592387,16,0,,10630384,1,0,0,0
195,52213115139,8348059@N02,Golden Pluto,1657682156,2021-12-03 10:53:03,Andy961,orlando lakebuenavista florida fl waltdisneyworld magickingdom characters pluto 50th anniversary golden statue,28.418811,-81.581048,16,0,,7169590,1,0,0,0
196,52211693775,88101388@N07,Kissimmee Bay #9 par 5 998,1657626211,2022-07-12 07:41:31,tewiespix,kissimmeebay golfcourse orlando florida,28.309670,-81.330757,13,0,,7191217,1,0,0,0
197,52207218767,23720661@N08,Big Thunder Mountain,1657515571,2017-05-25 11:49:35,Ray Horwath,,28.420656,-81.585075,16,0,,7169590,1,0,0,0
198,52201982635,8348059@N02,Under the Sea,1657250120,2021-12-03 09:30:26,Andy961,orlando lakebuenavista florida fl waltdisneyworld wdw magickingdom littlemermaid underthesea rides attractions,28.421022,-81.580109,16,0,,7169590,1,0,0,0
199,52201505200,21652490@N06,Jessie,1657228313,2022-05-01 00:00:00,meeko_,jessie toy toystory pixar statue toystoryland disneys hollywood studios disneyshollywoodstudios themepark walt disney world waltdisneyworld florida,28.357133,-81.560461,15,0,,4146844,1,0,0,0
200,52198130607,51035555243@N01,Schwab's Pharmacy,1657153166,2019-07-14 15:39:12,Thomas Hawk,america florida orlando schwabspharmacy usa unitedstates unitedstatesofamerica universal universalorlandoresort universalstudios universalstudiosflorida universalstudiosorlando bw neon neonsign pharmacy fav10 fav25,28.476258,-81.467362,16,0,,4161179,1,0,0,0
201,52196307361,73114641@N00,20220705_141844,1657048688,2022-07-05 14:18:45,RobandSheila,,28.319266,-81.540945,16,0,,4150394,1,0,0,0
202,52192329413,49322136@N00,mewithoutyou-2206-73,1656915138,2022-06-21 21:19:23,gtdmouse,mewithoutyou 2022 concert thebeacham orlando fl,28.542970,-81.379370,16,0,,4167147,1,0,0,0
203,52183564932,25827417@N00,The Sword in the Stone,1656614208,2022-04-28 08:39:22,Hilary_JW,swordinthestone fantasyland magickingdom orlando waltdisneyworld,28.420318,-81.580402,16,0,,7169590,1,0,0,0
204,52182700651,20701570@N00,,1656536113,2022-06-29 15:34:41,frankreidjr,,28.350955,-81.547150,16,0,,4150394,1,0,0,0
205,52170527179,63979425@N05,,1656098517,2022-06-23 17:39:08,InMyMac,starislandresort kissimmee vacation,28.328358,-81.485062,16,0,,7191225,1,0,0,0
206,52164990917,10297435@N03,EC B&V72,1655930954,2022-06-06 18:43:00,kickapoobd,icle1 iclea1,28.371636,-81.548264,16,0,,7170298,1,0,0,0
207,52166016191,10297435@N03,EC B&V73,1655930954,2022-06-06 18:44:12,kickapoobd,icle1 iclea1,28.371625,-81.548228,16,0,,7170298,1,0,0,0
208,52162359872,25827417@N00,Gorilla,1655836832,2022-04-27 13:45:42,Hilary_JW,waltdisneyworld orlando africa gorillafallsexplorationtrail gorilla disneysanimalkingdom,28.352923,-81.590676,16,0,,10630384,1,0,0,0
209,52159161562,169859437@N06,2011_DSP_2618_23022011-2,1655730395,2011-02-23 23:32:38,AWP Team,plane aircraft aeroplane avion aviones flugzeuge planespotting orlando airport international mco kmco fl florida usa unitedstatesofamerica northamerica airliner airlines airliners us spotter christeler chr stephane schr avgeek aviation aviación photo photography awpteam awp aeroworldpicturescom aeroworldpictures nikon d300s nef raw lightroom sigma 120400mm 2011,28.435220,-81.308269,12,0,,7170008,1,0,0,0
210,52158675980,30251147@N00,20220617_142234,1655659891,2022-06-17 14:22:34,lauramorlandrhodes,,28.568447,-81.363042,16,0,,4167147,1,0,0,0
211,52153091279,79051158@N06,_GTL9073-CR3_DxO_DeepPRIME,1655465427,2022-04-23 10:33:50,gary_leavens,,28.583600,-81.358600,16,0,,7171028,1,0,0,0
212,52147178232,124450184@N05,A substantial meal!,1655286066,2022-04-23 15:15:34,Linda Martin Photography,usa lindamartinphotography wildlife lindamartin specanimal nature coth lawd lakeapopka ardeaherodias greatblueheron florida bird animal stan naturethroughthelens alittlebeauty coth5 ngc npc,28.702332,-81.634254,12,0,,4178933,1,0,0,0
213,52147378326,66550674@N06,Snowy Egret,1655252935,2022-05-18 10:59:53,Shannon Rose O'Shea,shannonroseoshea shannonosheawildlifephotography shannonoshea shannon egret bird beak feathers bokeh yelloweye flickr wwwflickrcomphotosshannonroseoshea nature wildlife waterfowl alligatorbreedingmarshandwadingbirdrookery gatorland orlando florida gatorlandbirdrookery rookery outdoors outdoor outside colorful colourful colors colours closeup close wild wildlifephotography wildlifephotographer wildlifephotograph naturephotographer naturephotograph naturephotography birdphotographer birdphotograph birdphotography camera canon canoneos80d canon80d canon100400mm14556lisiiusm eos80d eos 80d 80dbird canon80d100400mmusmii femalephotographer girlphotographer womanphotographer throughherlens canongirl shootlikeagirl shootwithacamera 2022 202205181059531 profile snowyegret egrettathula,28.354631,-81.402543,16,0,,4159416,1,0,0,0
214,52146711500,169859437@N06,2011_DSP_2637_23022011,1655220775,2011-02-23 23:37:47,AWP Team,plane aircraft aeroplane avion flugzeuge planespotting orlando international airport mco kmco fl florida usa unitedstatesofamerica spotter christeler chr stephane schr avgeek aviation photography awp awpteam aeroworldpictures aeroworldpicturescom nikon d300s nef raw lightroom sigma 120400mm 2011,28.435220,-81.308269,12,0,,7170008,1,0,0,0
215,52146000073,38514062@N03,Narrowleaf Ironweed (Vernonia angustifolia),1655214595,2022-06-11 13:32:57,Mary Keim,centralflorida marykeim rockspringsrunstatereserve bioblitz floridanativewildflowers taxonomy:binomial=vernoniaangustifolia,28.799192,-81.447787,15,0,,4154582,1,0,0,0
216,52144914882,25360342@N02,switch25,1655212564,2022-01-29 21:16:20,jenseib,,28.363752,-81.575614,16,0,,7169590,1,0,0,0
217,52144161362,90195461@N04,Florida prickly pear,1655184734,2022-06-12 07:56:53,Deanna Derosia,,28.590730,-81.153512,16,0,,7192485,1,0,0,0
218,52144471843,21652490@N06,Flamingos,1655158262,2022-05-01 00:00:00,meeko_,flamingo lesser lesserflamingo bird animals discovery island trails discoveryislandtrails attraction discoveryisland disneys animal kingdom disneysanimalkingdom themepark walt disney world waltdisneyworld florida,28.357624,-81.590588,15,0,,10630384,1,0,0,0
219,52143027847,79051158@N06,_GTL7317-CR3_DxO_DeepPRIME,1655147924,2022-04-10 16:13:29,gary_leavens,,28.733747,-81.480326,16,0,,7189362,1,0,0,0
220,52142122960,38514062@N03,Common Eastern Bumble Bee (Bombus impatiens),1655069104,2022-06-11 14:17:31,Mary Keim,taxonomy:genus=bombus centralflorida marykeim rockspringsrunstatereserve taxonomy:binomial=bombusimpatiens,28.798849,-81.451081,16,0,,4154582,1,0,0,0
221,52141651323,38514062@N03,Eastern Velvet Ant (Dasymutilla occidentalis),1655069111,2022-06-11 12:24:39,Mary Keim,centralflorida marykeim rockspringsrunstatereserve taxonomy:binomial=dasymutillaoccidentalis,28.795716,-81.448999,16,0,,4154582,1,0,0,0
222,52139104593,79051158@N06,_GTL7190-CR3_DxO_DeepPRIME,1654982561,2022-04-09 10:11:18,gary_leavens,,28.583600,-81.358600,16,0,,7171028,1,0,0,0
223,52123590593,25827417@N00,Regal Eagle Smokehouse,1654431490,2022-04-26 16:50:04,Hilary_JW,waltdisneyworld orlando epcot worldshowcase americanadventure regaleaglesmokehouse restaurants themuppets,28.367197,-81.549346,16,0,,4149265,1,0,0,0
224,52123251388,169859437@N06,2011_DSP_2672_23022011,1654414974,2011-02-23 23:50:18,AWP Team,orlando airport mco kmco florida usa unitedstatesofamerica fl planespotting 2011 plane aircraft aeroplane avion flugzeuge aviation photography spotter christeler stephane chr schr avgeek aeroworldpicturescom aeroworldpictures awpteam awp airlines airliner nikon d300s 120400mm sigma raw nef,28.435220,-81.308269,12,0,,7170008,1,0,0,0
225,52117998377,25827417@N00,Timon Topiary,1654252283,2022-04-26 13:28:06,Hilary_JW,waltdisneyworld orlando epcot internationalflowergardenfestival topiary thelionking,28.374694,-81.549404,16,0,,4146844,1,0,0,0
226,52111149617,25827417@N00,Germany,1654001065,2022-04-26 09:34:30,Hilary_JW,waltdisneyworld orlando epcot worldshowcase germany,28.368275,-81.547117,16,0,,4149265,1,0,0,0
227,52110616761,87630222@N05,Tudor Black Bay 58,1653940839,2022-05-26 14:54:21,torontomanblog,,28.336155,-81.496514,16,0,,7191225,1,0,0,0
228,52110140871,129302695@N07,David & family,1653927799,2020-12-25 13:36:36,susan_bonnett,,28.660247,-81.450112,16,0,,4155824,1,0,0,0
229,52110103778,57835821@N00,Typhoon Lagoon,1653925812,2022-05-14 11:50:14,heytampa,disney disneyworld typhoonlagoon conner hey,28.367063,-81.530289,16,0,,4149265,1,0,0,0
230,52108217633,40768161@N08,Girls in Aviation Day 2019,1653857687,2019-10-05 14:47:39,Carolyn Hutchins,giad19 womwninaviation,28.437966,-81.334403,16,0,,7192474,1,0,0,0
231,52108692535,40768161@N08,Girls in Aviation Day 2019,1653857683,2019-10-05 13:40:51,Carolyn Hutchins,giad19 womwninaviation,28.438997,-81.332656,16,0,,7192474,1,0,0,0
232,52107753805,25827417@N00,Vibrante & Verde: An Encanto Garden,1653832226,2022-04-26 09:12:47,Hilary_JW,waltdisneyworld epcot worldshowcase internationalflowergardenfestival encanto topiary,28.374694,-81.549404,16,0,,4146844,1,0,0,0
233,52095054401,49027661@N03,Florida May 2022,1653358664,2022-05-23 15:36:14,Rob Massey 2000,florida disneyworld magickingdom,28.416880,-81.580383,16,0,,7169590,1,0,0,0
234,52094628474,21652490@N06,Mulan,1653336007,2022-05-01 00:00:00,meeko_,mulan characters disneycharacters china chinapavilion worldshowcase epcot themepark walt disney world waltdisneyworld florida,28.373050,-81.549453,15,0,,7170298,1,0,0,0
235,52091942763,75571744@N05,MegaCon 2022 (29),1653254522,2022-05-21 14:49:18,ViewMan83,megacon orlando cosplay,28.424731,-81.469266,15,0,,4178397,1,0,0,0
236,52088890320,25827417@N00,Rock 'n' Roller Coaster Starring Aerosmith,1653129236,2022-04-25 10:14:30,Hilary_JW,waltdisneyworld orlando rollercoasters disneyshollywoodstudios,28.358045,-81.559141,16,0,,4146844,1,0,0,0
237,52086267047,49027661@N03,Florida May 2022,1653078805,2022-05-20 10:31:21,Rob Massey 2000,florida disneyhollywoodstudios,28.355455,-81.562423,16,0,,4146844,1,0,0,0
238,52083114809,25827417@N00,Slinky Dog Dash,1652899959,2022-04-25 09:10:30,Hilary_JW,waltdisneyworld orlando toystory pixar slinkydogdash disneyshollywoodstudios,28.356247,-81.562837,16,0,,4146844,1,0,0,0
239,52081698828,90043358@N02,20211220_190514,1652874693,2021-12-20 19:05:14,jptalledo,,28.409575,-81.463939,16,0,,4178397,1,0,0,0
240,52081880449,90043358@N02,20211222_091251,1652874722,2021-12-22 09:12:52,jptalledo,,28.362458,-81.594237,16,0,,10630384,1,0,0,0
241,52082012425,90043358@N02,20211222_172747,1652874784,2021-12-22 17:27:47,jptalledo,,28.358250,-81.587600,16,0,,10630384,1,0,0,0
242,52081531493,90043358@N02,20211222_191009,1652874788,2021-12-22 19:10:09,jptalledo,,28.355358,-81.592456,16,0,,10630384,1,0,0,0
243,52082527315,90043358@N02,20211219_085523,1652874484,2021-12-19 08:55:23,jptalledo,,28.416627,-81.581423,16,0,,7169590,1,0,0,0
244,52080925647,90043358@N02,20211219_094336,1652874518,2021-12-19 09:43:37,jptalledo,,28.420108,-81.581275,16,0,,7169590,1,0,0,0
245,52081847431,90043358@N02,20211219_165732,1652874595,2021-12-19 16:57:33,jptalledo,,28.418675,-81.583617,16,0,,7169590,1,0,0,0
246,52081123131,36127036@N05,DSC08963-1,1652828181,2022-05-16 11:57:48,calebstorms,,28.472499,-81.473228,16,0,,4161179,1,0,0,0
247,52081120188,36127036@N05,DSC09053,1652828207,2022-05-17 10:00:03,calebstorms,,28.477977,-81.469428,16,0,,4161179,1,0,0,0
248,52071530332,25827417@N00,Mickey's Magical Friendship Faire,1652536600,2022-04-24 19:02:48,Hilary_JW,waltdisneyworld orlando magickingdom mickeysmagicalfriendshipfaire princessthefrog princenaveen mickeymouse,28.418856,-81.581228,16,0,,7169590,1,0,0,0
249,52060930942,25827417@N00,Disney's Polynesian Village Resort,1652118998,2022-04-25 06:16:14,Hilary_JW,waltdisneyworld orlando hotels polynesianresort moana,28.405257,-81.585051,16,0,,7169590,1,0,0,0
0,52107753805,25827417@N00,Vibrante & Verde: An Encanto Garden,1653832226,2022-04-26 09:12:47,Hilary_JW,waltdisneyworld epcot worldshowcase internationalflowergardenfestival encanto topiary,28.374694,-81.549404,16,0,,4146844,1,0,0,0
1,52095054401,49027661@N03,Florida May 2022,1653358664,2022-05-23 15:36:14,Rob Massey 2000,florida disneyworld magickingdom,28.416880,-81.580383,16,0,,7169590,1,0,0,0
2,52094628474,21652490@N06,Mulan,1653336007,2022-05-01 00:00:00,meeko_,mulan characters disneycharacters china chinapavilion worldshowcase epcot themepark walt disney world waltdisneyworld florida,28.373050,-81.549453,15,0,,7170298,1,0,0,0
3,52091942763,75571744@N05,MegaCon 2022 (29),1653254522,2022-05-21 14:49:18,ViewMan83,megacon orlando cosplay,28.424731,-81.469266,15,0,,4178397,1,0,0,0
4,52088890320,25827417@N00,Rock 'n' Roller Coaster Starring Aerosmith,1653129236,2022-04-25 10:14:30,Hilary_JW,waltdisneyworld orlando rollercoasters disneyshollywoodstudios,28.358045,-81.559141,16,0,,4146844,1,0,0,0
5,52086267047,49027661@N03,Florida May 2022,1653078805,2022-05-20 10:31:21,Rob Massey 2000,florida disneyhollywoodstudios,28.355455,-81.562423,16,0,,4146844,1,0,0,0
6,52083114809,25827417@N00,Slinky Dog Dash,1652899959,2022-04-25 09:10:30,Hilary_JW,waltdisneyworld orlando toystory pixar slinkydogdash disneyshollywoodstudios,28.356247,-81.562837,16,0,,4146844,1,0,0,0
7,52081698828,90043358@N02,20211220_190514,1652874693,2021-12-20 19:05:14,jptalledo,,28.409575,-81.463939,16,0,,4178397,1,0,0,0
8,52081880449,90043358@N02,20211222_091251,1652874722,2021-12-22 09:12:52,jptalledo,,28.362458,-81.594237,16,0,,10630384,1,0,0,0
9,52082012425,90043358@N02,20211222_172747,1652874784,2021-12-22 17:27:47,jptalledo,,28.358250,-81.587600,16,0,,10630384,1,0,0,0
10,52081531493,90043358@N02,20211222_191009,1652874788,2021-12-22 19:10:09,jptalledo,,28.355358,-81.592456,16,0,,10630384,1,0,0,0
11,52082527315,90043358@N02,20211219_085523,1652874484,2021-12-19 08:55:23,jptalledo,,28.416627,-81.581423,16,0,,7169590,1,0,0,0
12,52080925647,90043358@N02,20211219_094336,1652874518,2021-12-19 09:43:37,jptalledo,,28.420108,-81.581275,16,0,,7169590,1,0,0,0
13,52081847431,90043358@N02,20211219_165732,1652874595,2021-12-19 16:57:33,jptalledo,,28.418675,-81.583617,16,0,,7169590,1,0,0,0
14,52081123131,36127036@N05,DSC08963-1,1652828181,2022-05-16 11:57:48,calebstorms,,28.472499,-81.473228,16,0,,4161179,1,0,0,0
15,52081120188,36127036@N05,DSC09053,1652828207,2022-05-17 10:00:03,calebstorms,,28.477977,-81.469428,16,0,,4161179,1,0,0,0
16,52071530332,25827417@N00,Mickey's Magical Friendship Faire,1652536600,2022-04-24 19:02:48,Hilary_JW,waltdisneyworld orlando magickingdom mickeysmagicalfriendshipfaire princessthefrog princenaveen mickeymouse,28.418856,-81.581228,16,0,,7169590,1,0,0,0
17,52060930942,25827417@N00,Disney's Polynesian Village Resort,1652118998,2022-04-25 06:16:14,Hilary_JW,waltdisneyworld orlando hotels polynesianresort moana,28.405257,-81.585051,16,0,,7169590,1,0,0,0
18,52056684182,52601501@N02,2022 in B&W: The Long Shadow.,1651974697,2022-04-26 17:11:45,Samuel Santiago,2022 ayearinblackandwhite seeinginblackandwhite monochrome bw googlenikcollection silverefexpro2 texture forms shapes tonalcontrast analog analogphotography film rollfilm sammysantiago samuelsantiago fineart photography filmgrain grain homedevelop plustek8100 scan3600dpi siverfast8 shootingdatarecorded exifdatainput analogexif rolleiretro400s kodakxtol nikonn90s nikonafd3580f456 winterpark florida filmshots leaf500 nikonmf26 streetphotography,28.596766,-81.350759,16,0,,7171028,1,0,0,0
19,52055442523,12508217@N08,Elephant Bathing Pool,1651893362,1998-04-01 00:00:00,Sam Howzit,waltdisneyworld disneysanimalkingdomthemepark florida disney disneyparks kilimanjarosafaris elephant,28.365034,-81.593914,16,0,,10630384,1,0,0,0
20,52036909468,27917561@N00,Liberty Square Riverboat,1651204363,2022-04-24 06:59:40,jpellgen (@1179_jp),mco orlando fla florida usa america travel disneyworld waltdisney south southern themepark vacation 2022 april spring disneyland disney centralflorida sigma nikon 1770mm d7200 50thanniversary magickingdom riverboat,28.419183,-81.581854,14,0,,7169590,1,0,0,0
21,52036729208,73425700@N00,,1651184222,2022-04-11 11:23:33,Alan and Sarah,,28.358230,-81.592414,16,0,,10630384,1,0,0,0
22,52035866469,73425700@N00,,1651149362,2022-04-08 20:22:23,Alan and Sarah,,28.433730,-81.472420,16,0,,4153367,1,0,0,0
23,52035694959,73425700@N00,,1651141155,2022-04-09 13:42:40,Alan and Sarah,,28.470722,-81.469909,16,0,,4161179,1,0,0,0
24,52034711266,73425700@N00,,1651103336,2022-04-08 16:02:36,Alan and Sarah,,28.479094,-81.469606,16,0,,4161179,1,0,0,0
25,52034296254,73425700@N00,,1651080114,2022-04-08 15:28:23,Alan and Sarah,,28.479033,-81.468270,16,0,,4161179,1,0,0,0
26,52033944588,73425700@N00,,1651075581,2022-04-11 13:02:52,Alan and Sarah,,28.359122,-81.591562,16,0,,10630384,1,0,0,0
27,52031429607,38514062@N03,Brown Anole (Anolis sagrei),1651014467,2022-04-25 14:16:00,Mary Keim,centralflorida bioblitz marykeim lakejesupwildernessarea taxonomy:binomial=anolissagrei,28.726900,-81.262253,16,0,,4151375,1,0,0,0
28,52032534519,38514062@N03,Scarlet-bodied Wasp Moth (Cosmosoma myrodora),1651007243,2022-04-25 11:08:30,Mary Keim,centralflorida marykeim lakejesupwildernessarea bioblitz taxonomy:binomial=cosmosomamyrodora,28.734361,-81.259002,15,0,,4147353,1,0,0,0
29,52031241207,38514062@N03,Southern Broken-Dash (Polites otho),1651007244,2022-04-25 10:11:43,Mary Keim,centralflorida marykeim lakejesupwildernessarea bioblitz taxonomy:binomial=politesotho,28.728434,-81.256492,16,0,,4172445,1,0,0,0
30,52031228960,73425700@N00,,1650950714,2022-04-11 11:13:00,Alan and Sarah,,28.358452,-81.591859,16,0,,10630384,1,0,0,0
31,52028709062,73425700@N00,,1650915232,2022-04-12 15:42:22,Alan and Sarah,,28.420416,-81.582017,16,0,,7169590,1,0,0,0
32,52028606572,73425700@N00,,1650912561,2022-04-12 11:03:40,Alan and Sarah,,28.418530,-81.579437,16,0,,7169590,1,0,0,0
33,52029781114,73425700@N00,,1650909196,2022-04-13 15:34:03,Alan and Sarah,,28.416691,-81.581406,16,0,,7169590,1,0,0,0
34,52028692776,55455788@N00,Monday morning vibes—it’s been a minute since I’ve dug out my 60s/70s/80s playlist,1650885526,2022-04-25 07:03:02,Lee Bennett,tunes 80 70 60 pandora music,28.673061,-81.509803,16,0,,4146166,1,0,0,0
35,52026677397,19567516@N00,,1650847175,2022-04-24 17:52:00,bigbrian-nc,,28.414711,-81.575675,16,0,,4146844,1,0,0,0
36,52028207795,73425700@N00,,1650846244,2022-04-13 21:01:52,Alan and Sarah,,28.419119,-81.581148,16,0,,7169590,1,0,0,0
37,52024321268,73425700@N00,,1650733499,2022-04-16 16:43:42,Alan and Sarah,,28.353941,-81.562059,16,0,,4146844,1,0,0,0
38,52024594315,73425700@N00,,1650726825,2022-04-16 11:10:10,Alan and Sarah,,28.358297,-81.558739,16,0,,4146844,1,0,0,0
39,52023932238,73425700@N00,,1650719768,2022-04-17 13:14:40,Alan and Sarah,,28.374213,-81.553223,16,0,,4146844,1,0,0,0
40,52023915674,73425700@N00,,1650711026,2022-04-16 14:19:00,Alan and Sarah,,28.354233,-81.561675,16,0,,4146844,1,0,0,0
41,52023132060,73425700@N00,,1650665718,2022-04-17 16:38:28,Alan and Sarah,,28.354527,-81.560137,16,0,,4146844,1,0,0,0
42,52021079422,147459361@N04,N892DN,1650654342,2021-04-14 06:56:21,AviatorTravis,n892dn,28.428461,-81.300470,16,0,,7170008,1,0,0,0
43,52022097611,73425700@N00,,1650648450,2022-04-17 16:27:31,Alan and Sarah,,28.354411,-81.559692,16,0,,4146844,1,0,0,0
44,52022553440,73425700@N00,"Orlando, Florida 2022",1650646751,2022-04-19 14:11:15,Alan and Sarah,,28.473083,-81.469956,16,0,,4161179,1,0,0,0
45,52020965337,73425700@N00,"Orlando, Florida 2022",1650645792,2022-04-20 14:12:28,Alan and Sarah,,28.443419,-81.469292,16,0,,4153367,1,0,0,0
46,52021974609,73425700@N00,"Orlando, Florida 2022",1650636835,2022-04-19 14:11:13,Alan and Sarah,,28.473083,-81.469956,16,0,,4161179,1,0,0,0
47,52020597457,73425700@N00,"Orlando, Florida 2022",1650634089,2022-04-20 16:56:21,Alan and Sarah,,28.442705,-81.469550,16,0,,4153367,1,0,0,0
48,52021063473,92485358@N08,I-4 Westbound through the I-4 Ultimate Project at Night,1650604619,2022-04-21 22:07:48,Paul DiGian,i4 i4ultimateproject orlando florida highways roads,28.422169,-81.474404,16,0,,4178397,1,0,0,0
49,52017247002,62007874@N00,"Colonial Revival House, Orlando, 1986",1650486890,1986-03-01 00:00:00,StevenM_61,house architecture residence colonialrevival georgianrevival orlando florida historical 1986 brickhouse,28.534822,-81.369542,16,0,,4167147,1,0,0,0
50,52018531694,62007874@N00,"Old House, Orlando, 1986",1650486894,1986-03-01 00:00:00,StevenM_61,house architecture residence colonialrevival orlando florida historical 1986,28.541882,-81.362397,16,0,,4167147,1,0,0,0
51,52010513624,28794527@N00,"Osceola Lodge: Charles Hosmer Morse House, 1883",1650197777,2022-04-15 11:48:50,Burnt Umber,flurbex urbex negra negro retro white blanco noir schwarz weis weiss black bianca nero necro rpilla001 osceolalodge charleshosmermorsehouse 1883 stick cracker historic verander shutters clapboard shingle tamronsp1750mmf28edxrdiii copyrightallrightsreserved,28.599159,-81.349051,16,0,,7171028,1,0,0,0
52,52009764518,12508217@N08,With Goofy,1650174999,1983-07-21 00:00:14,Sam Howzit,minniesmenehunebreakfast papeetebayverandah disneyspolynesianvillageresort waltdisneyworld florida 1983 july1983 greatceremonialhouse goofy disneycharacter susan,28.405622,-81.585630,16,0,,7169590,1,0,0,0
53,52005309943,12508217@N08,Motion,1649988035,2000-01-01 00:00:00,Sam Howzit,epcot epcotcenter theland futureworld waltdisneyworld florida disney disneyparks,28.374068,-81.552018,16,0,,4146844,1,0,0,0
54,51978993037,12508217@N08,Granddaughter in Mesa Verde,1649012394,1999-01-01 00:00:00,Sam Howzit,epcot epcotcenter disney disneyparks waltdisneyworld horizons futureworld mesaverde audioanimatronics granddaughter,28.374078,-81.546695,16,0,,7170298,1,0,0,0
55,51973230736,99117185@N00,"Louis Dewis - Snow in Biarritz, 1942 at Orlando Museum of Art - Orlando FL",1648733137,2022-03-06 12:32:40,mbell1975,orlando florida unitedstates louis dewis snow biarritz 1942 museum art fl museo musée musee muzeum museu musum müze museet finearts fine arts gallery gallerie beauxarts beaux galleria painting belgian impression impressionist impressionism omart oma,28.572827,-81.364925,16,0,,4154769,1,0,0,0
56,51968283882,29480773@N03,Lizzie with Race Ears,1648575257,2019-11-03 03:54:07,borisvolodnikov,rundisney disney lizzie race,28.380417,-81.546074,16,0,,4161168,1,0,0,0
57,51959695981,29000027@N05,MegaCon Orlando 2019 Cosplay - SNOW WHITE,1648193486,2019-05-18 14:38:56,Howie Muzika,cosplay costume comiccon character comicbookconvention orlandomegacon2019,28.427146,-81.461906,16,0,,4178397,1,0,0,0
58,51953589922,126250149@N08,Flamingos - Epcot Center,1647968103,2022-03-22 11:39:15,stevelamb007,,28.372899,-81.550354,15,0,,4146844,1,0,0,0
59,51950779393,40646519@N00,Great Blue Heron Flying Away,1647811044,2021-12-25 14:28:57,Joe Shlabotnik,nikond7000 orlando 2021 bird apopka december2021 heron setfloridadec2021 florida unitedstates,28.668886,-81.587537,16,0,,4163813,1,0,0,0
60,51949721597,40646519@N00,Great Blue Heron Flying Away,1647810990,2021-12-25 14:28:53,Joe Shlabotnik,nikond7000 orlando 2021 bird apopka december2021 heron setfloridadec2021 florida unitedstates,28.668916,-81.587437,16,0,,4163813,1,0,0,0
61,51946379804,45703383@N05,Ford Transit Connect Van,1647625397,2022-03-18 13:42:57,rwcar4,,28.426675,-81.314095,16,0,,7170008,1,0,0,0
62,51945994173,45703383@N05,Orlando Intl Airport Fire Station - Orlando FL,1647620210,2022-03-18 12:16:24,rwcar4,,28.421712,-81.311166,16,0,,7170008,1,0,0,0
63,51939170692,32544079@N08,,1647361754,2022-03-15 12:14:11,jwood601,,28.472833,-81.473220,16,0,,4161179,1,0,0,0
64,51765846290,76475621@N00,Branch of palm at creek of tannins.,1647347809,2021-11-28 14:28:37,Tim Kiser,southerncoastalplain pompanosoils stjohnsriverdrainagebasin tannins creek southeasternconiferforests seminolecounty pompanofinesand stateforest stjohnsriverwatershed 2021 dscf1977 typicpsammaquents november2021 orlandometropolitanarea humidsubtropical kolokeetrail pompanosoilseries arecaceae palmetto autumninflorida riverinelandscape leafstalk sand petiole aquents seminolecountyflorida humidsubtropicalclimate tannicstream 28november2021 entisols pompanoseries unnamedstream floridatrail centralflorida palmleafstalk palms blackwater unnamedcreek sabal centralfloridaridgesanduplands floridanationalscenictrail sabalpalmetto riverlandscape stream psammaquents overcast floodplain unnamedtributary unnamedbrook cession118 cabbagepalmetto streamlandscape november nationalscenictrail blackwaterstream econlockhatcheeriverfloodplain river cabbagepalm floodplainlandscape sandysoil overcastlandscape creeklandscape greaterorlando landscape littlebigeconstateforest treatyofmoultriecreek,28.682194,-81.145156,16,0,,4159810,1,0,0,0
65,51939377480,20701570@N00,,1647297593,2022-03-11 11:26:55,frankreidjr,,28.419088,-81.581384,16,0,,7169590,1,0,0,0
66,51938840493,20701570@N00,,1647297590,2022-03-11 10:27:35,frankreidjr,,28.420486,-81.580956,16,0,,7169590,1,0,0,0
67,51939080304,20701570@N00,,1647297583,2022-03-10 18:19:46,frankreidjr,,28.375333,-81.551406,16,0,,4146844,1,0,0,0
68,51939079994,20701570@N00,,1647297574,2022-03-12 15:27:00,frankreidjr,,28.359808,-81.591225,16,0,,10630384,1,0,0,0
69,51939080009,20701570@N00,,1647297574,2022-03-12 15:33:40,frankreidjr,,28.363427,-81.589745,16,0,,10630384,1,0,0,0
70,51938839488,20701570@N00,,1647297565,2022-03-12 18:05:44,frankreidjr,,28.352705,-81.589020,16,0,,10630384,1,0,0,0
71,51934986349,45703383@N05,Orlando FL Police- Airport Division- 2017 Dodge Charger,1647136689,2022-03-12 12:55:06,rwcar4,,28.430883,-81.307561,16,0,,7170008,1,0,0,0
72,51765210798,76475621@N00,FAVORITE VIEW no. 586 of Florida National Scenic Trail November 28th.,1646956086,2021-11-28 13:45:21,Tim Kiser,southerncoastalplain pompanosoils woodedlandscape sawpalmetto forestlandscape leaflitter littlebigeconstateforestlandscape woodedtrail trippinghazards floodplainlandscape seminolecounty pompanofinesand stateforest floodplainforest landscape 2021 dscf1900 typicpsammaquents november2021 novemberinflorida orlandometropolitanarea centralfloridalandscape traillandscape humidsubtropical stateforestlandscape kolokeetrail pompanosoilseries arecaceae palmetto autumninflorida floridalandscape woods plantlitter seminolecountyflorida humidsubtropicalclimate 28november2021 entisols pompanoseries trail floridatrail centralflorida centralfloridaridgesanduplands floridanationalscenictrail overcastlandscape psammaquents overcast floodplain sand cession118 aquents roots november nationalscenictrail econlockhatcheeriverfloodplain treeroots novemberlandscape serenoarepens seminolecountylandscape foresttrail southeasternconiferforests forest greaterorlando treatyofmoultriecreek littlebigeconstateforest sandysoil,28.681908,-81.135717,16,0,,4161035,1,0,0,0
73,51922132482,28746286@N07,2017-01-31_1225-13-910 One Ocean show at Shamu Stadium at SeaWorld Orlando,1646630184,2017-01-31 12:25:13,gunzel412,florida geo:lat=2840808833 geo:lon=8146181833 geotagged orlando unitedstates usa williamsburg,28.408088,-81.461820,16,0,,4178397,1,0,0,0
74,51918514013,42580834@N08,Big Beautiful Eyes,1646440222,2021-09-28 11:07:46,LVnative,lvnative sony a7riv itsasmallworld waltdisneyworld orlando florida magickingdom,28.420655,-81.582080,16,0,,7169590,1,0,0,0
75,51906368997,193197435@N05,Paddle in Paradise 2/27,1645976484,2022-02-27 09:16:57,epicpaddleadventures,,28.564063,-81.376778,16,0,,4167147,1,0,0,0
76,51906861621,9036889@N06,,1645959112,2022-02-26 11:53:55,milst1,,28.408974,-81.460006,16,0,,4178397,1,0,0,0
77,51907172914,9036889@N06,"SeaWorld Orlando Price Board, February 2022",1645959021,2022-02-26 10:56:24,milst1,,28.411522,-81.463448,16,0,,4178397,1,0,0,0
78,51907360880,79761301@N00,Disney Hollywood Studio,1645953120,2021-03-17 16:42:25,jericl cat,disneyhollywoodstudios artdeco hollywood history boulevard sunset losangeles architecture design imagineering wdw disney world 2021 vacation covid,28.358063,-81.559775,16,0,,4146844,1,0,0,0
79,51906991554,79761301@N00,Magic Kingdom,1645950235,2021-03-14 21:16:37,jericl cat,magic kingdom itsasmallworld fantasyland ride interior dark,28.421219,-81.581209,16,0,,7169590,1,0,0,0
80,51907289990,79761301@N00,Magic Kingdom,1645949554,2021-03-14 16:10:06,jericl cat,magic kingdom wdw disney 2021 mainstreet,28.417441,-81.581148,16,0,,7169590,1,0,0,0
81,51906972969,79761301@N00,Magic Kingdom,1645949550,2021-03-14 15:59:00,jericl cat,magic kingdom wdw disney 2021 mainstreet,28.418075,-81.581520,16,0,,7169590,1,0,0,0
82,51905671267,79761301@N00,EPCOT Center,1645948625,2021-03-13 19:16:35,jericl cat,epcot center wdw disneyworld disney,28.371408,-81.547456,16,0,,7170298,1,0,0,0
83,51898345288,193197435@N05,TuTuTuesday,1645577877,2022-02-22 18:08:03,epicpaddleadventures,,28.565150,-81.373270,16,0,,4167147,1,0,0,0
84,51894934675,67211657@N07,2022_02_19_14_42_IMG_1328,1645418491,2022-02-19 14:42:16,tonyescapa,,28.467022,-81.447700,16,0,,7192477,1,0,0,0
85,51894613569,67211657@N07,2022_02_19_14_33_IMG_1280,1645418328,2022-02-19 14:33:26,tonyescapa,,28.467263,-81.447784,16,0,,7192477,1,0,0,0
86,51894606894,67211657@N07,2022_02_19_12_48_IMG_1204,1645418043,2022-02-19 12:48:28,tonyescapa,,28.468466,-81.444625,16,0,,7192477,1,0,0,0
87,51894595209,67211657@N07,2022_02_19_12_18_IMG_1099,1645417529,2022-02-19 12:18:15,tonyescapa,,28.468719,-81.445039,16,0,,7192477,1,0,0,0
88,51894344613,67211657@N07,2022_02_19_12_11_IMG_1076,1645417428,2022-02-19 12:11:54,tonyescapa,,28.468305,-81.444603,16,0,,7192477,1,0,0,0
89,51892199382,193197435@N05,,1645379090,2022-02-20 09:01:49,epicpaddleadventures,,28.565158,-81.373459,16,0,,4167147,1,0,0,0
90,51891860911,193197435@N05,,1645320397,2022-02-12 12:21:22,epicpaddleadventures,,28.567366,-81.385087,16,0,,4154772,1,0,0,0
91,51892198864,193197435@N05,,1645320367,2022-02-12 12:29:44,epicpaddleadventures,,28.566169,-81.385270,16,0,,4154772,1,0,0,0
92,51878033379,194998904@N03,WDW EPCOT,1644702835,2022-01-28 13:51:44,editorrandy63110,waltdisneyworld orlando,28.375291,-81.549485,16,0,,4146844,1,0,0,0
93,51877732493,194998904@N03,Main Street WDW,1644702848,2019-02-13 18:18:32,editorrandy63110,waltdisneyworld orlando,28.417026,-81.581232,16,0,,7169590,1,0,0,0
94,51865207368,152435704@N08,Private,1644141091,2021-12-13 12:35:46,Th1200,cessna172nskyhawk cn17271720,28.539834,-81.341486,16,0,,4167060,1,0,0,0
95,51854641841,12508217@N08,Indy's Ride,1643656477,2016-10-03 09:36:03,Sam Howzit,merchandise funko funkopoprides indianajones indysride disneyparks templeoftheforbiddeneye disneyshollywoodstudios indianajonesepicstuntspectacular waltdisneyworld,28.356642,-81.558432,16,0,,4146844,1,0,0,0
96,51852761815,193744526@N04,IMG_0330,1643559824,2021-07-31 10:11:03,One Tree Planted,map,28.591208,-81.204309,16,0,,4176219,1,0,0,0
97,51847651925,129117471@N02,Documentary,1643330498,2011-05-18 11:21:15,Alan.Flowers.Productions,alanflowersproductions alanflowers fullsailuniversity,28.597263,-81.301605,15,0,,4145920,1,0,0,0
98,51844546684,56701972@N00,Maharajah Jungle Trek in Disney's Animal Kingdom,1643206614,2022-01-10 13:52:24,JonathanWolfson,disneyworld animalkingdom disneysanimalkingdom,28.359888,-81.589559,16,0,,10630384,1,0,0,0
99,51842037442,56701972@N00,Lake Eola Park Walt Disney Amphitheater,1643145896,2022-01-09 17:25:12,JonathanWolfson,orlando downtownorlando eola lakeeola lakeeolapark amphitheater,28.542366,-81.374512,16,0,,4167147,1,0,0,0
100,51842036997,56701972@N00,Lake Eola Park Pagoda,1643145901,2022-01-09 18:04:48,JonathanWolfson,orlando downtownorlando eola lakeeola lakeeolapark pagoda,28.542188,-81.372295,16,0,,4167147,1,0,0,0
101,51842974121,56701972@N00,Lake Eola Park,1643145904,2022-01-09 16:51:29,JonathanWolfson,orlando lakeeola lakeeolapark,28.545469,-81.372578,16,0,,4167147,1,0,0,0
102,51833089661,12508217@N08,Panda Mugs,1642742087,2016-09-26 10:55:08,Sam Howzit,epcot epcotcenter worldshowcase chinapavilion waltdisneyworld florida chinese merchandise houseofgoodfortune,28.370379,-81.546041,16,0,,7170298,1,0,0,0
103,51833428464,12508217@N08,Buddha,1642739742,2016-09-26 10:35:46,Sam Howzit,epcot epcotcenter worldshowcase waltdisneyworld disney disneyparks chinapavilion houseofgoodfortune merchandise buddha chinese,28.370379,-81.546041,16,0,,7170298,1,0,0,0
104,51833428149,12508217@N08,Shop Interior,1642739747,2016-09-26 10:38:24,Sam Howzit,epcot epcotcenter worldshowcase waltdisneyworld disney disneyparks chinapavilion houseofgoodfortune merchandise chinese,28.370379,-81.546041,16,0,,7170298,1,0,0,0
105,51832133512,12508217@N08,Shop Interior,1642739750,2016-09-26 10:39:26,Sam Howzit,epcot epcotcenter worldshowcase waltdisneyworld disney disneyparks chinapavilion houseofgoodfortune merchandise chinese,28.370379,-81.546041,16,0,,7170298,1,0,0,0
106,51833184278,12508217@N08,Shop Interior,1642739750,2016-09-26 10:39:34,Sam Howzit,epcot epcotcenter worldshowcase waltdisneyworld disney disneyparks chinapavilion houseofgoodfortune merchandise chinese,28.370379,-81.546041,16,0,,7170298,1,0,0,0
107,51832103287,12508217@N08,Lotus Blossom Cafe Exterior,1642738079,2016-09-26 09:56:50,Sam Howzit,epcot epcotcenter waltdisneyworld chinapavilion florida disney disneyparks,28.370029,-81.546255,16,0,,7170298,1,0,0,0
108,51832860556,8173443@N06,,1642728286,2021-10-29 14:01:20,tiggertownmn,,28.368333,-81.553184,16,0,,4146844,1,0,0,0
109,51833193429,8173443@N06,,1642727226,2021-10-31 10:44:23,tiggertownmn,,28.363280,-81.529137,16,0,,4149265,1,0,0,0
110,51831039559,51035555243@N01,Fossil,1642624180,2019-07-14 18:18:26,Thomas Hawk,america citywalk florida fossil orlando usa unitedstates unitedstatesofamerica universal universalcitywalk universalcitywalkorlando universalorlandoresort bw neon neonsign fav10,28.473513,-81.465778,16,0,,4161179,1,0,0,0
111,51827640005,57835821@N00,Magic Kingdom,1642452700,2022-01-15 11:54:04,heytampa,disney disneyworld magickingdom frontierland david hey davidhey cheryl fitzpatrick conner paxton,28.419405,-81.584087,16,0,,7169590,1,0,0,0
112,51824944778,23207003@N05,ECHL - Amway Center - Solar Bears 2022,1642369576,2022-01-16 14:13:58,jrotn,,28.539836,-81.383934,16,0,,4167147,1,0,0,0
113,51822747227,9860213@N08,20220103_135030,1642330913,2022-01-03 13:50:30,gcjpro,,28.375969,-81.549423,16,0,,4146844,1,0,0,0
114,51812466716,75311191@N02,Greenwood Lake Park,1641830650,2021-11-27 13:37:28,gametimeplay,gametimegreenwoodlakepark lakemary fl usa,28.734277,-81.338550,16,0,,4161396,1,0,0,0
115,51811587645,25360342@N02,veloci41,1641766995,2021-11-04 18:44:03,jenseib,,28.471608,-81.472437,16,0,,4161179,1,0,0,0
116,51808037501,9860213@N08,20220108_135917 406,1641668402,2022-01-08 13:59:17,gcjpro,,28.385363,-81.535069,16,0,,4161168,1,0,0,0
117,51802602949,40646519@N00,Playing Pool,1641424506,2021-12-26 18:44:00,Joe Shlabotnik,nancy setfloridadec2021 peter 2021 sue pool billiards december2021 orlando galaxys20 florida unitedstates,28.555897,-81.508350,16,0,,11257764,1,0,0,0
118,51790332401,57835821@N00,Florida Visit,1640980865,2018-12-08 14:45:11,heytampa,florida fl orlando vistacay pool,28.428448,-81.448774,16,0,,4178397,1,0,0,0
119,51785398259,34610466@N05,,1640781538,2021-12-26 17:07:01,KarlGercens.com GARDEN LECTURES,,28.472836,-81.472892,16,0,,4161179,1,0,0,0
120,51784849628,62595633@N06,Universal's Endless Summer Resort Surfside Inn,1640779930,2020-03-01 20:51:25,Leticia F. Terra,orlando usa2020 night usa travel hotels,28.460738,-81.465187,16,0,,4174791,1,0,0,0
121,51785220609,62595633@N06,Sea World,1640779934,2020-03-01 14:47:41,Leticia F. Terra,orlando usa2020 usa amusementparks travel,28.413124,-81.460434,16,0,,4178397,1,0,0,0
122,51784848073,62595633@N06,Islands of Adventure,1640779910,2020-03-02 16:03:07,Leticia F. Terra,orlando usa2020 usa amusementparks travel,28.472752,-81.469959,16,0,,4161179,1,0,0,0
123,51783780492,62595633@N06,Hollywood Studios,1640779811,2020-03-08 11:52:12,Leticia F. Terra,orlando usa2020 disney usa amusementparks travel,28.354022,-81.560412,16,0,,4146844,1,0,0,0
124,51783780022,62595633@N06,Epcot,1640779779,2020-03-09 17:42:57,Leticia F. Terra,orlando usa2020 disney usa amusementparks travel,28.367680,-81.548195,16,0,,4149265,1,0,0,0
125,51783779802,62595633@N06,Disney Springs,1640779766,2020-03-10 12:03:21,Leticia F. Terra,usa2020 usa travel orlando,28.369961,-81.518706,16,0,,4149265,1,0,0,0
126,51784231993,34610466@N05,,1640751383,2021-12-26 14:52:00,KarlGercens.com GARDEN LECTURES,,28.479569,-81.469978,16,0,,4161179,1,0,0,0
127,51783043964,7926262@N05,IMG_3444,1640699987,2021-12-27 16:44:11,jdeckgallery,universal studios florida park,28.479294,-81.469353,16,0,,4161179,1,0,0,0
128,51762657353,40646519@N00,Rock Star,1640128135,2021-11-22 20:54:22,Joe Shlabotnik,justviolet orlando universal 2021 universalorlando setuniversalorlandonov2021 violet setorlandonov2021 november2021 galaxys20 hardrockhotel florida guitar unitedstates,28.476763,-81.463895,16,0,,4161179,1,0,0,0
129,51761206047,40646519@N00,Universal Studios,1640120434,2021-11-23 17:57:59,Joe Shlabotnik,setorlandonov2021 orlando universal 2021 universalorlando november2021 galaxys20 setuniversalorlandonov2021 universalstudios florida unitedstates,28.477344,-81.468078,16,0,,4161179,1,0,0,0
130,51761847506,40646519@N00,Playing Pool,1640116735,2021-11-28 07:03:00,Joe Shlabotnik,blurry pool galaxys9 2021 violet setorlandonov2021 billiards november2021 justviolet orlando florida unitedstates,28.555897,-81.508350,16,0,,11257764,1,0,0,0
131,51761836371,40646519@N00,Enjoying A Holiday Mimosa Before Our Flight,1640116546,2021-11-28 09:47:26,Joe Shlabotnik,justpeter orlando airport peter 2021 november2021 setorlandonov2021 galaxya12 florida mco unitedstates,28.434269,-81.314242,16,0,,7170008,1,0,0,0
132,51759886869,55455788@N00,Dazzling Nights,1640026655,2021-12-18 19:47:37,Lee Bennett,leu garden light holiday christmas,28.567845,-81.356924,16,0,,7171028,1,0,0,0
133,51758203036,20701570@N00,,1639984046,2021-12-03 13:03:21,frankreidjr,,28.357847,-81.560770,16,0,,4146844,1,0,0,0
134,51757710351,73281647@N03,Nutcracker,1639961879,2021-12-18 21:01:13,~Ocho1~,,28.537591,-81.376250,16,0,,4167147,1,0,0,0
135,51755618442,21652490@N06,Toy Story Christmas Tree,1639918596,2021-11-01 00:00:00,meeko_,alien toy toystory pixar christmas tree christmastree decoration christmasdecoration stroll christmastreestroll disneyspringschristmastreestroll disneychristmas disneyholidays westside springs disneysprings walt disney world waltdisneyworld florida,28.369746,-81.519391,15,0,,4149265,1,0,0,0
136,51751203827,40646519@N00,Michael Jackson On The Fourth Floor,1639719540,2021-11-21 21:28:08,Joe Shlabotnik,setorlandonov2021 orlando universal michaeljackson 2021 universalorlando hardrockhotel november2021 setuniversalorlandonov2021 canonpowershots95 florida unitedstates,28.476702,-81.463989,16,0,,4161179,1,0,0,0
137,51751698813,40646519@N00,Leaving Volcano Bay,1639694458,2021-11-21 16:52:23,Joe Shlabotnik,setorlandonov2021 verne orlando volcanobay 2021 universalorlando nancy everett sue canonpowershots95 november2021 setuniversalorlandonov2021 setvolcanobaynov2021 universal florida unitedstates,28.462555,-81.472384,16,0,,4161179,1,0,0,0
138,51747633497,25360342@N02,wdw160,1639580192,2021-11-03 16:18:47,jenseib,,28.355938,-81.592423,16,0,,10630384,1,0,0,0
139,51745469828,96139953@N06,"Islands Of Adventure, 2021 Dec -071",1639445307,2021-12-04 18:54:22,Haimanti Weld,florida 2021 universal iphone13pro universalstudios islandsofadventure,28.472108,-81.468820,16,0,,4161179,1,0,0,0
140,51745216916,96139953@N06,"Universal Studios, 2021 Dec -078",1639444626,2021-12-04 18:08:19,Haimanti Weld,florida 2021 universal iphone13pro universalstudios,28.475924,-81.469139,16,0,,4161179,1,0,0,0
141,51745204711,96139953@N06,"Universal Studios, 2021 Dec -005",1639444126,2021-12-04 16:09:30,Haimanti Weld,florida 2021 universal iphone13pro universalstudios,28.475327,-81.467545,16,0,,4161179,1,0,0,0
142,51742781438,100152083@N04,Epcot,1639350230,2021-12-12 13:53:46,mcneil33,,28.371672,-81.550495,16,0,,4146844,1,0,0,0
143,51742161844,69574134@N00,Zebras,1639321663,2021-07-17 12:06:48,moacirdsp,zebras kilimanjaro safaris africa disneys animal kingdom theme park walt disney world resort florida usa 2021 ,28.363897,-81.594392,16,0,,10630384,1,0,0,0
144,51740580794,12508217@N08,Hawaii Sign,1639255499,2016-09-24 18:31:46,Sam Howzit,epcot epcotcenter epcotinternationalfoodandwinefestival worldshowcase waltdisneyworld disney disneyparks hawaii,28.371927,-81.549786,16,0,,7170298,1,0,0,0
145,51736527783,89660686@N06,Wood Stork,1639095279,2021-11-25 08:36:14,NeilCastle,bird woodstork orlando wildlife birds florida,28.357612,-81.624233,15,0,,7193451,1,0,0,0
146,51732517739,51035555243@N01,Watch Out Below,1638917858,2019-07-14 11:23:50,Thomas Hawk,america florida islandsofadventure orlando toonlagoon usa unitedstates unitedstatesofamerica universal universalislandsofadventure universalorlandoresort universalstudiosislandsofadventure fav10,28.470011,-81.472162,16,0,,4161179,1,0,0,0
147,51727466929,100152083@N04,Winnie the Pooh,1638735763,2021-12-05 10:46:26,mcneil33,,28.373658,-81.551189,16,0,,4146844,1,0,0,0
148,51726813691,100152083@N04,Epcot.  Living the Land.,1638735706,2021-12-05 10:16:56,mcneil33,,28.373800,-81.554673,16,0,,4146844,1,0,0,0
149,51727665825,100152083@N04,Epcot.  Living the Land.,1638734888,2021-12-05 10:14:17,mcneil33,,28.373800,-81.554673,16,0,,4146844,1,0,0,0
150,51725690338,40646519@N00,Dinner At Cowfish,1638689149,2021-11-22 18:28:43,Joe Shlabotnik,restaurant citywalk november2021 orlando florida verne 2021 nancy universal cowfish universalorlando sue 60225mm setorlandonov2021,28.473118,-81.465415,16,0,,4161179,1,0,0,0
151,51722133986,40646519@N00,Universal's Holiday Parade,1638566478,2021-11-23 17:34:00,Joe Shlabotnik,2021 november2021 video orlando florida canonpowershots95 universalorlando universal parade universalstudios setorlandonov2021,28.476745,-81.467635,16,0,,4161179,1,0,0,0
152,51719810617,78672040@N00,2021 Give Kids the World Night of a Million Lights,1638496085,2021-12-02 18:50:37,coconut wireless,christmaslights givekidstheworld orlando kissimmee christmas,28.287895,-81.458992,16,0,,7191209,1,0,0,0
153,51720380478,95012874@N00,Mike and Nikki's Wedding Day 10-6-1998,1638476995,2021-11-20 15:14:06,Martin Pettitt,usa june summer kissimmee mikeandnikkisweddingday epsonpervectionv600photo film orlando minoltadynax7000i floridaholiday1998 scanned 1998 florida burystedmunds suffolk uk,28.303872,-81.415942,16,0,,7170285,1,0,0,0
154,51710016786,95012874@N00,Seaworld,1638096546,2021-11-28 10:44:06,Martin Pettitt,film 35mm usa fujifilm wildlife minoltadynax7000i 1998 superia orlando 400iso seaworld floridaholiday sealife scanned epsonperfectionv600photo florida,28.411527,-81.460842,16,0,,4178397,1,0,0,0
155,51708410136,22076709@N06,Leu Gardens,1638032434,2021-11-26 15:19:11,elenat11,nikon leugardens orlando,28.567618,-81.357600,15,0,,7171028,1,0,0,0
156,51707252578,28558260@N04,Walt Disney World Train Station,1637971935,2021-09-30 18:55:24,"Disney, Indiana",,28.420164,-81.581715,16,0,,7169590,1,0,0,0
157,51707886430,95012874@N00,Disney Epcot,1637971546,2021-11-26 22:33:24,Martin Pettitt,usa 35mm fujifilm minoltadynax7000i 1998 superia orlando 400iso film floridaholiday disneyepcot scanned epsonperfectionv600photo florida,28.519416,-81.317870,16,0,,4167060,1,0,0,0
158,51707213718,95012874@N00,Amy Disney Epcot,1637969114,2021-11-26 22:32:53,Martin Pettitt,usa 35mm fujifilm minoltadynax7000i 1998 superia orlando 400iso film floridaholiday disneyepcot scanned epsonperfectionv600photo florida,28.552813,-81.369398,16,0,,4167147,1,0,0,0
159,51704006567,95012874@N00,Katie,1637877064,2020-10-17 15:49:16,Martin Pettitt,orlando usa 35mm fujifilm minoltadynax7000i theapartment superia film 400iso katie floridaholiday 1998 scanned epsonperfectionv600photo florida,28.295919,-81.397312,16,0,,7191227,1,0,0,0
160,51698854729,9036889@N06,Tiny little parade at Disney Hollywood Studios,1637612079,2021-11-20 18:17:33,milst1,,28.357750,-81.559364,16,0,,4146844,1,0,0,0
161,51696280877,193568976@N08,"carpet cleaning, tile cleaning, upholstery cleaning, floor cleaning",1637575152,2021-10-20 19:52:10,adamsmithof,carpet cleaning tile upholstery floor,28.758554,-81.288453,16,0,,4174366,1,0,0,0
162,51696074531,9036889@N06,,1637536209,2021-11-21 13:24:19,milst1,,28.471819,-81.469956,16,0,,4161179,1,0,0,0
163,51696734509,9036889@N06,,1637535659,2021-11-21 11:18:27,milst1,,28.471933,-81.472406,16,0,,4161179,1,0,0,0
164,51696730964,9036889@N06,,1637535546,2021-11-21 14:58:19,milst1,,28.472150,-81.468437,16,0,,4161179,1,0,0,0
165,51695355839,9036889@N06,,1637496493,2021-11-16 12:12:05,milst1,,28.429644,-81.462189,16,0,,4178397,1,0,0,0
166,51693879687,9036889@N06,,1637496355,2021-11-18 14:33:39,milst1,,28.408513,-81.463317,16,0,,4178397,1,0,0,0
167,51695350389,9036889@N06,,1637496303,2021-11-16 12:23:32,milst1,,28.429616,-81.462198,16,0,,4178397,1,0,0,0
168,51693529234,189482906@N05,EDC Orlando 2021,1637427211,2021-11-12 22:17:03,casualsnap,edcorlando edcorlando2021 edc2021 edcorlando2021kineticfield edckineticfield edcorlandokineticfield orlando edc orlando2021 edm edmfestival lasers people peoples festival music musicfestival,28.537405,-81.402382,16,0,,7192452,1,0,0,0
169,51690737318,69574134@N00,New EPCOT Under Construction,1637329647,2021-07-15 17:10:26,moacirdsp,new epcot under construction walt disney world florida usa 2021 ,28.373205,-81.550362,16,0,,4146844,1,0,0,0
170,51688401036,9036889@N06,Remy's Ratatouille Adventure,1637243287,2021-11-14 13:11:32,milst1,,28.368300,-81.552620,16,0,,4146844,1,0,0,0
171,51688664078,9036889@N06,Disney Skyliner Funko Pop,1637242983,2021-11-13 07:56:43,milst1,,28.350300,-81.543037,16,0,,4150394,1,0,0,0
172,51689205585,9036889@N06,,1637239681,2021-11-14 22:49:28,milst1,,28.418766,-81.580170,16,0,,7169590,1,0,0,0
173,51687873805,9036889@N06,Martin at Disney Dish Podcast,1637180885,2021-11-12 17:18:34,milst1,,28.366183,-81.554620,16,0,,4146844,1,0,0,0
174,51687238398,9036889@N06,Skyliner,1637180614,2021-11-12 16:54:47,milst1,,28.363958,-81.552445,16,0,,4149265,1,0,0,0
175,51687642594,9036889@N06,"Chipotle Seitan and Vegetable Sauté, breakfast at  Everything POP Shopping & Dining",1637180549,2021-11-14 08:17:58,milst1,,28.350358,-81.543237,16,0,,4150394,1,0,0,0
176,51687808165,9036889@N06,Soarin' Mechanics,1637178866,2021-11-14 12:28:33,milst1,,28.372586,-81.552323,16,0,,4146844,1,0,0,0
177,51686290043,69574134@N00,Soarin',1637146588,2021-07-15 16:04:35,moacirdsp,soarin around world the land epcot walt disney florida usa 2021 ,28.372748,-81.552704,16,0,,4146844,1,0,0,0
178,51685348356,9036889@N06,,1637116277,2021-11-15 13:48:19,milst1,,28.426708,-81.461731,16,0,,4178397,1,0,0,0
179,51685344131,9036889@N06,,1637116121,2021-11-14 22:50:56,milst1,,28.419352,-81.577928,16,0,,7169590,1,0,0,0
180,51684550242,9036889@N06,Contemporary Resort,1637115868,2021-11-14 14:44:38,milst1,,28.414416,-81.574456,16,0,,4146844,1,0,0,0
181,51683760787,69574134@N00,Mission: SPACE,1637088028,2021-07-15 15:03:51,moacirdsp,mission space epcot walt disney world florida usa 2021 ,28.373913,-81.546928,16,0,,7170298,1,0,0,0
182,51684546596,69574134@N00,Chevrolet,1637088022,2021-07-15 14:32:12,moacirdsp,chevrolet test track epcot walt disney world florida usa 2021 ,28.372900,-81.547631,16,0,,7170298,1,0,0,0
183,51684729294,9036889@N06,Remy's Ratatouille Adventure,1637072221,2021-11-14 13:13:01,milst1,,28.368233,-81.552948,16,0,,4146844,1,0,0,0
184,51683226602,9036889@N06,Boardwalk Lobby,1637070979,2021-11-12 17:22:41,milst1,,28.366572,-81.556023,16,0,,4146844,1,0,0,0
185,51669321346,37896751@N04,DisneyWorld 1990 (30),1636536625,1990-03-01 01:19:50,roue.michel,,28.416918,-81.581221,16,0,,7169590,1,0,0,0
186,51669990619,37896751@N04,DisneyWorld 1990 (4),1636535809,1990-03-01 01:15:30,roue.michel,,28.416918,-81.581221,16,0,,7169590,1,0,0,0
187,51666497925,99442860@N02,Cell Phone pics from Disney 2021,1636428148,2021-11-07 12:47:50,patgilligan,,28.358336,-81.589850,16,0,,10630384,1,0,0,0
188,51665615031,99442860@N02,Cell Phone pics from Disney 2021,1636428036,2021-11-05 10:48:12,patgilligan,,28.355997,-81.561570,16,0,,4146844,1,0,0,0
189,51666493665,99442860@N02,Cell Phone pics from Disney 2021,1636428003,2021-11-06 16:38:56,patgilligan,,28.368077,-81.547792,16,0,,4149265,1,0,0,0
190,51659796479,151952460@N07,IMG_3845,1636217549,2021-10-18 08:16:50,telo11@ymail.com,,28.364880,-81.595092,16,0,,10630384,1,0,0,0
191,51659335288,151952460@N07,IMG_3906,1636217583,2021-10-18 09:43:58,telo11@ymail.com,,28.358105,-81.589989,16,0,,10630384,1,0,0,0
192,51659328513,151952460@N07,IMG_3939,1636217599,2021-10-18 15:52:31,telo11@ymail.com,,28.355052,-81.592370,16,0,,10630384,1,0,0,0
193,51659328368,151952460@N07,IMG_3940,1636217600,2021-10-18 16:31:40,telo11@ymail.com,,28.355566,-81.591537,16,0,,10630384,1,0,0,0
194,51658280542,151952460@N07,IMG_4007,1636217640,2021-10-19 13:20:35,telo11@ymail.com,,28.418922,-81.582887,16,0,,7169590,1,0,0,0
195,51659756104,151952460@N07,IMG_4403,1636217680,2021-10-21 08:45:43,telo11@ymail.com,,28.354975,-81.560762,16,0,,4146844,1,0,0,0
196,51659298728,151952460@N07,IMG_4461,1636217708,2021-10-21 18:34:59,telo11@ymail.com,,28.354113,-81.562164,16,0,,4146844,1,0,0,0
197,51659069256,151952460@N07,IMG_4468,1636217714,2021-10-21 19:15:52,telo11@ymail.com,,28.354636,-81.562120,16,0,,4146844,1,0,0,0
198,51659940810,151952460@N07,IMG_4496,1636217731,2021-10-22 11:32:14,telo11@ymail.com,,28.375416,-81.551559,16,0,,4146844,1,0,0,0
199,51652244547,134025113@N07,Private owner | Cessna 650 Citation VI | N651EJ,1635987941,2021-10-31 15:01:21,zheng.wenjie,aircraft airplane aviation planespotting airlines,28.432317,-81.308956,12,0,,7170008,1,0,0,0
200,51653381835,21652490@N06,Meeko,1635969608,2021-10-01 00:00:00,meeko_,meeko raccoon pocahontas characters disneycharacters discovery river character cruise discoveryrivercharactercruise flotilla entertainment discoveryriver asia disneys animal kingdom disneysanimalkingdom themepark walt disney world waltdisneyworld florida discoveryrivercruise,28.357813,-81.590588,15,0,,10630384,1,0,0,0
201,51649827984,38514062@N03,Eastern Bluebird (Sialia sialis),1635855606,2021-10-30 13:27:07,Mary Keim,centralflorida marykeim splitoakforestwea taxonomy:binomial=sialiasialis,28.352960,-81.200616,15,0,,7192999,1,0,0,0
202,51636141678,51035555243@N01,Matching Colors,1635450495,2019-07-14 15:17:21,Thomas Hawk,america florida orlando usa unitedstates unitedstatesofamerica universal universalorlandoresort universalstudios universalstudiosflorida universalstudiosorlando universalssuperstarparade parade fav10,28.476566,-81.469231,16,0,,4161179,1,0,0,0
203,51636074414,25360342@N02,final35,1635435024,2021-10-01 13:35:32,jenseib,,28.472733,-81.469520,16,0,,4161179,1,0,0,0
204,51634243716,8173443@N06,,1635384615,2021-10-24 14:17:06,tiggertownmn,,28.354575,-81.560167,16,0,,4146844,1,0,0,0
205,51634463733,8173443@N06,,1635384570,2021-10-24 14:22:23,tiggertownmn,,28.354405,-81.560137,16,0,,4146844,1,0,0,0
206,51634442820,25360342@N02,final4,1635361287,2021-10-01 07:46:13,jenseib,,28.455900,-81.462159,16,0,,4174791,1,0,0,0
207,51633332964,88101388@N07,PXL_20211025_123124288,1635332828,2021-10-25 08:31:24,tewiespix,,28.480024,-81.461606,16,0,,4161179,1,0,0,0
208,51629222731,25360342@N02,pg38,1635204522,2021-09-30 15:27:56,jenseib,,28.478427,-81.468042,16,0,,4161179,1,0,0,0
209,51626982674,42853203@N00,FL Trail Chuluota,1635115810,2021-10-24 18:49:18,C.S. McDonald,“florida trail” chuluota florida floridatrail,28.634507,-81.093971,16,0,,4150914,1,0,0,0
210,51618038713,51035555243@N01,"Look, I Told Her",1634906555,2019-07-14 17:54:07,Thomas Hawk,america cinematiccelebration florida orlando usa unitedstates unitedstatesofamerica universal universalorlandoresort universalstudios universalstudiosflorida universalstudiosorlando fav10,28.477830,-81.468164,16,0,,4161179,1,0,0,0
211,51614213512,25360342@N02,pg17,1634839807,2021-09-30 13:31:55,jenseib,,28.472013,-81.473039,16,0,,4161179,1,0,0,0
212,51598437282,129112323@N08,,1634483677,2021-10-08 11:39:55,oklahomajoy,,28.369244,-81.552789,16,0,,4146844,1,0,0,0
213,51599914604,129112323@N08,,1634483561,2021-10-08 12:45:29,oklahomajoy,,28.368758,-81.552217,16,0,,4146844,1,0,0,0
214,51599225138,129112323@N08,,1634477657,2021-10-08 11:42:47,oklahomajoy,,28.368916,-81.552887,16,0,,4146844,1,0,0,0
215,51599529274,37162306@N00,,1634474562,2020-08-24 18:21:53,longdistancehiker,mme,28.353325,-81.603767,16,0,,10630384,1,0,0,0
216,51596814432,25360342@N02,rs57,1634439791,2021-09-29 17:03:41,jenseib,,28.471941,-81.472603,16,0,,4161179,1,0,0,0
217,51596941126,69574134@N00,Chinese Theatre,1634425114,2021-07-14 14:44:44,moacirdsp,chinese theatre mickey minnies runaway railway hollywood boulevard echo lake disneys studios walt disney world florida usa 2021 ,28.356938,-81.560914,16,0,,4146844,1,0,0,0
218,51595393418,129112323@N08,,1634388363,2021-10-08 13:43:01,oklahomajoy,,28.368155,-81.550431,16,0,,4149265,1,0,0,0
219,51593893829,129112323@N08,,1634336963,2021-10-08 14:11:09,oklahomajoy,,28.368302,-81.547325,16,0,,4149265,1,0,0,0
220,51584811416,69574134@N00,Rock 'n' Roller Coaster,1634140895,2021-07-14 13:24:10,moacirdsp,rock n roller coaster starring aerosmith sunset boulevard disneys hollywood studios walt disney world florida usa 2021 ,28.359569,-81.560568,16,0,,4146844,1,0,0,0
221,51585238545,79051158@N06,_GTL2999-CR3_DxO_DeepPRIME,1634131195,2021-10-10 09:07:26,gary_leavens,wintersprings florida unitedstates,28.709661,-81.271867,16,0,,4165544,1,0,0,0
222,51581437837,25360342@N02,rs14,1634077173,2021-09-29 14:20:41,jenseib,,28.460730,-81.463495,16,0,,4174791,1,0,0,0
223,51575321200,129112323@N08,,1633909239,2021-10-08 10:10:35,oklahomajoy,,28.374933,-81.550850,16,0,,4146844,1,0,0,0
224,51569267046,69574134@N00,Coca-Cola Store,1633802023,2021-07-12 20:57:24,moacirdsp,cocacola store marketplace disney springs walt world florida usa 2021 ,28.369311,-81.519050,16,0,,4149265,1,0,0,0
225,51564802579,160649943@N04,,1633678665,2012-02-05 09:03:45,schors,,28.473300,-81.467500,16,0,,4161179,1,0,0,0
226,51564357803,160649943@N04,,1633678627,2012-02-04 19:01:08,schors,,28.473300,-81.467500,16,0,,4161179,1,0,0,0
227,51564355533,160649943@N04,,1633678568,2012-02-04 18:17:41,schors,,28.473300,-81.467500,16,0,,4161179,1,0,0,0
228,51564310503,160649943@N04,,1633677374,2012-02-04 12:25:28,schors,,28.473300,-81.467500,16,0,,4161179,1,0,0,0
229,51564601599,160649943@N04,,1633672720,2012-02-01 12:58:41,schors,,28.473300,-81.467500,16,0,,4161179,1,0,0,0
230,51564840485,160649943@N04,,1633672578,2012-02-01 12:21:33,schors,,28.473300,-81.467500,16,0,,4161179,1,0,0,0
231,51564144083,160649943@N04,,1633672313,2012-02-01 11:54:47,schors,,28.473300,-81.467500,16,0,,4161179,1,0,0,0
232,51564104018,160649943@N04,,1633671069,2012-01-31 15:40:40,schors,,28.473300,-81.467500,16,0,,4161179,1,0,0,0
233,51559017520,12636305@N07,CAL01043.jpg,1633540168,2021-10-05 22:07:55,kattanapilot,,28.580856,-81.308902,16,0,,4145920,1,0,0,0
234,51557299487,12636305@N07,CAL01039.jpg,1633540145,2021-10-05 22:06:05,kattanapilot,,28.580856,-81.308902,16,0,,4145920,1,0,0,0
235,51536283797,187103922@N04,Harmonious Opening Night,1633051941,2021-09-29 21:19:39,elisfkc2,,28.368030,-81.548334,16,0,,4149265,1,0,0,0
236,51537066466,187103922@N04,Spaceship Earth Points of Light,1633051905,2021-09-29 21:34:14,elisfkc2,,28.371811,-81.549320,16,0,,7170298,1,0,0,0
237,51537060091,187103922@N04,Harmonious Opening Night,1633051720,2021-09-29 21:01:17,elisfkc2,,28.367811,-81.548200,16,0,,4149265,1,0,0,0
238,51537988295,187103922@N04,Harmonious Opening Night,1633051702,2021-09-29 21:03:49,elisfkc2,,28.368297,-81.547814,16,0,,4149265,1,0,0,0
239,51537055811,187103922@N04,Harmonious Opening Night,1633051606,2021-09-29 21:10:17,elisfkc2,,28.367977,-81.548500,16,0,,4149265,1,0,0,0
240,51537055241,187103922@N04,Harmonious Opening Night,1633051593,2021-09-29 21:11:11,elisfkc2,,28.367977,-81.548500,16,0,,4149265,1,0,0,0
241,51530434292,60862860@N03,"Universal CityWalk - Orlando, FL",1632923544,2021-09-20 11:21:34,greenth1ng,universalstudiosflorida orlando florida universalorlandoresort islandsofadventureuniversalstudiosflorida islandsofadventure thefuntasticworldofhannabarbera alfredhitchcocktheartofmakingmovies nickelodeonstudios jimmyneutronsnicktoonblast despicablememinionmayhem shrek4d ghostbustersspooktacular twisterrideitout racethroughnewyorkstarringjimmyfallon kongfrontation revengeofthemummytheride hollywoodripriderockit transformerstheride bluesbrothers fastfurioussupercharged beetlejuicesrockrollgraveyardrevue earthquakethebigone jaws thewildwildwildweststuntshow thewizardingworldofharrypotter backtothefuturetheride thesimpsonsride meninblackalienattack etadventure animalactorsonlocation woodywoodpeckerskidzone lucyatribute terminator23dbattleacrosstime universalshorrormakeupshow racethroughnewyork velocicoaster hagridsmagicalcreaturesmotorbikeadventure hogsmeade diagonalley,28.473066,-81.465853,16,0,,4161179,1,0,0,0
242,52064130084,25360342@N02,spring27,1652191250,2022-01-21 11:28:05,jenseib,,28.371480,-81.516062,16,0,,4149265,1,0,0,0
243,52028642462,73425700@N00,,1650913498,2022-04-12 16:54:00,Alan and Sarah,,28.419177,-81.582145,16,0,,7169590,1,0,0,0
244,51784596301,62595633@N06,Sea World,1640779933,2020-03-01 16:45:14,Leticia F. Terra,orlando usa2020 usa amusementparks travel,28.406958,-81.462764,16,0,,4178397,1,0,0,0
245,51785467435,62595633@N06,Animal Kingdom,1640779838,2020-03-07 10:46:42,Leticia F. Terra,orlando usa2020 disney usa amusementparks travel,28.358483,-81.587770,16,0,,10630384,1,0,0,0
246,51784847353,62595633@N06,Animal Kingdom,1640779838,2020-03-07 10:48:20,Leticia F. Terra,orlando usa2020 disney usa amusementparks travel,28.358361,-81.588689,16,0,,10630384,1,0,0,0
247,51785219164,62595633@N06,Epcot,1640779789,2020-03-09 16:43:57,Leticia F. Terra,orlando usa2020 disney usa amusementparks travel,28.371491,-81.551437,16,0,,4146844,1,0,0,0
248,51784594811,62595633@N06,Epcot,1640779784,2020-03-09 17:15:19,Leticia F. Terra,orlando usa2020 disney usa amusementparks travel,28.368136,-81.551739,16,0,,4146844,1,0,0,0
249,51784846578,62595633@N06,Epcot,1640779782,2020-03-09 17:37:30,Leticia F. Terra,orlando usa2020 disney usa amusementparks travel,28.367761,-81.550512,16,0,,4149265,1,0,0,0
0,51413681604,35063445@N08,Walt Disney World Trip August 2021,1630337362,2021-08-19 11:07:32,honestys_easy,,28.373579,-81.549282,12,0,,7170298,1,0,0,0
1,51412181347,35063445@N08,Walt Disney World Trip August 2021,1630337364,2021-08-19 10:05:24,honestys_easy,,28.408312,-81.470832,12,0,,4178397,1,0,0,0
2,51391047448,9323822@N07,IMG_20210820_141519303,1629483337,2021-08-20 14:15:19,sidneysealine,,28.358125,-81.592789,16,0,,10630384,1,0,0,0
3,51379520804,96139953@N06,"Universal Studios, Aug 2021 -008",1628994493,2021-08-07 20:16:42,Haimanti Weld,florida 2021 universal iphone11 universalstudios islandsofadventure orlandofl,28.479686,-81.469612,16,0,,4161179,1,0,0,0
4,51379761785,96139953@N06,"Universal Studios, Jul 2021 -047",1628993286,2021-07-24 14:48:46,Haimanti Weld,florida 2021 universal iphone11 universalstudios islandsofadventure orlandofl,28.472727,-81.469392,16,0,,4161179,1,0,0,0
5,51378251923,129302695@N07,Ashley and Kristy,1628965758,2019-11-22 19:22:40,susan_bonnett,,28.367038,-81.555828,16,0,,4146844,1,0,0,0
6,51374336616,25360342@N02,islands12,1628806564,2021-05-07 15:02:08,jenseib,,28.472188,-81.472062,16,0,,4161179,1,0,0,0
7,51374482193,25360342@N02,islands8,1628803373,2021-05-07 15:21:12,jenseib,,28.471569,-81.472298,16,0,,4161179,1,0,0,0
8,51374803324,21652490@N06,Cookie Monster,1628798418,2020-02-01 00:00:00,meeko_,cookie monster cookiemonster muppet sesamestreet characters seaworldcharacters muppetcharacters sesamestreetland sesamestreetlandatseaworld seaworld orlando seaworldorlando themepark florida,28.411577,-81.463108,15,0,,4178397,1,0,0,0
9,51369345762,22007612@N05,Brandon Herrera,1628625861,2021-08-07 11:53:34,Gage Skidmore,brandon herrera revolution 2021 young americans liberty gaylord palms resort convention center kissimmee florida,28.342410,-81.526472,15,0,,4150394,1,0,0,0
10,51370101656,22007612@N05,Nick Freitas,1628625866,2021-08-07 13:08:23,Gage Skidmore,nick freitas virginia delegate revolution 2021 young americans liberty gaylord palms resort convention center kissimmee florida,28.342410,-81.526472,15,0,,4150394,1,0,0,0
11,51371099235,22007612@N05,Don Huffines,1628625888,2021-08-07 15:06:49,Gage Skidmore,don huffines texas state senator revolution 2021 young americans liberty gaylord palms resort convention center kissimmee florida,28.342410,-81.526472,15,0,,4150394,1,0,0,0
12,51369825026,22007612@N05,Eric Brakey,1628616482,2021-08-06 19:51:23,Gage Skidmore,eric brakey maine state senator revolution 2021 young americans liberty gaylord palms resort convention center kissimmee florida,28.342410,-81.526472,15,0,,4150394,1,0,0,0
13,51370047833,22007612@N05,Žilvinas Šilėnas,1628616496,2021-08-07 06:49:52,Gage Skidmore,zilvinas silenas revolution 2021 young americans liberty gaylord palms resort convention center kissimmee florida,28.342410,-81.526472,15,0,,4150394,1,0,0,0
14,51369820556,22007612@N05,Zuby,1628616505,2021-08-07 07:18:45,Gage Skidmore,zuby revolution 2021 young americans liberty gaylord palms resort convention center kissimmee florida,28.342410,-81.526472,15,0,,4150394,1,0,0,0
15,51367333412,22007612@N05,Priscilla Giddings,1628544274,2021-08-06 16:26:49,Gage Skidmore,priscilla giddings idaho state representative revolution 2021 young americans liberty gaylord palms resort convention center kissimmee florida,28.342372,-81.526494,15,0,,4150394,1,0,0,0
16,51369015200,22007612@N05,Chris McNutt,1628544256,2021-08-06 12:32:53,Gage Skidmore,chris mcnutt revolution 2021 young americans liberty gaylord palms resort convention center kissimmee florida,28.342372,-81.526494,15,0,,4150394,1,0,0,0
17,51368655950,22007612@N05,Stephen Rowe,1628533947,2021-08-06 07:18:05,Gage Skidmore,stephen rowe revolution 2021 young americans liberty gaylord palms resort convention center kissimmee florida,28.342372,-81.526494,15,0,,4150394,1,0,0,0
18,51351104528,79051158@N06,IMG_0202,1627852559,2021-08-01 10:41:59,gary_leavens,apopka florida unitedstates,28.669047,-81.561281,16,0,,7189356,1,0,0,0
